{"type":"FeatureCollection","features":[{"type":"Feature","properties":{"X":-121.282163,"Y":44.085948,"NAME":"10 Barrel Brewing Co","URL":null},"geometry":{"type":"Point","coordinates":[-121.282163,44.085948]}},{"type":"Feature","properties":{"X":-116.202386391,"Y":43.6174093656,"NAME":"10 Barrel Brewing Co","URL":null},"geometry":{"type":"Point","coordinates":[-116.20238639099995,43.61740936600006]}},{"type":"Feature","properties":{"X":-122.68578,"Y":45.525790015,"NAME":"10 Barrel Brewing Co","URL":"http://www.10barrel.com/"},"geometry":{"type":"Point","coordinates":[-122.68578,45.52579001500004]}},{"type":"Feature","properties":{"X":-117.150183,"Y":32.7146694957,"NAME":"10 Barrel Brewing Co","URL":null},"geometry":{"type":"Point","coordinates":[-117.150183,32.714669496000056]}},{"type":"Feature","properties":{"X":-121.328514,"Y":44.0565995395,"NAME":"10 Barrel Brewing Co","URL":null},"geometry":{"type":"Point","coordinates":[-121.328514,44.056599540000036]}},{"type":"Feature","properties":{"X":-121.28196858,"Y":44.0860185922,"NAME":"10 Barrel Brewing Co - Bend Pub","URL":null},"geometry":{"type":"Point","coordinates":[-121.28196857999995,44.08601859200007]}},{"type":"Feature","properties":{"X":-104.985752947,"Y":39.7595194685,"NAME":"10 Barrel Brewing Co - Denver","URL":null},"geometry":{"type":"Point","coordinates":[-104.98575294699998,39.759519468000065]}},{"type":"Feature","properties":{"X":-122.875667749,"Y":47.8225407085,"NAME":"101 Brewery","URL":null},"geometry":{"type":"Point","coordinates":[-122.87566774899994,47.822540708000076]}},{"type":"Feature","properties":{"X":-122.665280765,"Y":38.2701327605,"NAME":"101 North Brewing Company","URL":null},"geometry":{"type":"Point","coordinates":[-122.66528076499998,38.270132760000024]}},{"type":"Feature","properties":{"X":-104.866156503,"Y":39.3813000218,"NAME":"105 West Brewing Co","URL":null},"geometry":{"type":"Point","coordinates":[-104.86615650299996,39.38130002200006]}},{"type":"Feature","properties":{"X":-93.3894099836,"Y":45.1982619745,"NAME":"10K Brewing","URL":null},"geometry":{"type":"Point","coordinates":[-93.38940998399994,45.19826197400005]}},{"type":"Feature","properties":{"X":-70.946202339,"Y":42.1057569092,"NAME":"10th District Brewing Company","URL":null},"geometry":{"type":"Point","coordinates":[-70.94620233899997,42.105756909000036]}},{"type":"Feature","properties":{"X":-95.5184443307,"Y":29.9513647383,"NAME":"11 Below Brewing Company","URL":null},"geometry":{"type":"Point","coordinates":[-95.51844433099996,29.951364738000052]}},{"type":"Feature","properties":{"X":-118.951879974,"Y":44.4161000333,"NAME":"1188 Brewing Co","URL":null},"geometry":{"type":"Point","coordinates":[-118.95187997399995,44.41610003300008]}},{"type":"Feature","properties":{"X":-78.715314053,"Y":42.9537882681,"NAME":"12 Gates Brewing Company","URL":null},"geometry":{"type":"Point","coordinates":[-78.71531405299999,42.95378826800004]}},{"type":"Feature","properties":{"X":-111.726161277,"Y":33.321243516,"NAME":"12 West Brewing Company","URL":null},"geometry":{"type":"Point","coordinates":[-111.72616127699996,33.32124351600004]}},{"type":"Feature","properties":{"X":-84.4310670484,"Y":42.2865392906,"NAME":"127 Brewing","URL":null},"geometry":{"type":"Point","coordinates":[-84.43106704799999,42.286539291000054]}},{"type":"Feature","properties":{"X":-105.132087128,"Y":39.978279,"NAME":"12Degree Brewing","URL":null},"geometry":{"type":"Point","coordinates":[-105.13208712799997,39.978279]}},{"type":"Feature","properties":{"X":-93.0894388048,"Y":44.9470408163,"NAME":"12welve Eyes Brewing","URL":null},"geometry":{"type":"Point","coordinates":[-93.08943880499999,44.947040816000026]}},{"type":"Feature","properties":{"X":-84.7068060769,"Y":39.1270551357,"NAME":"13 Below Brewery","URL":null},"geometry":{"type":"Point","coordinates":[-84.70680607699995,39.127055136000024]}},{"type":"Feature","properties":{"X":-82.2872726959,"Y":34.920073278,"NAME":"13 Stripes Brewery","URL":null},"geometry":{"type":"Point","coordinates":[-82.28727269599995,34.920073278000075]}},{"type":"Feature","properties":{"X":-122.649024439,"Y":45.476199796,"NAME":"13 Virtues Brewing Co","URL":null},"geometry":{"type":"Point","coordinates":[-122.64902443899996,45.47619979600006]}},{"type":"Feature","properties":{"X":-78.6357431287,"Y":35.7999083309,"NAME":"1323 R &  D","URL":null},"geometry":{"type":"Point","coordinates":[-78.63574312899993,35.79990833100004]}},{"type":"Feature","properties":{"X":-118.803092778,"Y":34.1534748579,"NAME":"14 Cannons Brewing Company","URL":null},"geometry":{"type":"Point","coordinates":[-118.80309277799995,34.15347485800004]}},{"type":"Feature","properties":{"X":-94.1126026805,"Y":46.6869552012,"NAME":"14 Lakes Brewery","URL":null},"geometry":{"type":"Point","coordinates":[-94.11260268099994,46.686955201000046]}},{"type":"Feature","properties":{"X":-82.651941922,"Y":40.0838854494,"NAME":"1487 Brewery","URL":null},"geometry":{"type":"Point","coordinates":[-82.65194192199993,40.083885449000036]}},{"type":"Feature","properties":{"X":-104.983650937,"Y":39.761239557,"NAME":"14er Brewing Company","URL":null},"geometry":{"type":"Point","coordinates":[-104.983650937,39.76123955700007]}},{"type":"Feature","properties":{"X":-73.082636383,"Y":44.8149553272,"NAME":"14th Star Brewing","URL":null},"geometry":{"type":"Point","coordinates":[-73.08263638299997,44.814955327000064]}},{"type":"Feature","properties":{"X":-84.3257896663,"Y":39.3489420939,"NAME":"16 Lots Brewing","URL":null},"geometry":{"type":"Point","coordinates":[-84.32578966599993,39.34894209400005]}},{"type":"Feature","properties":{"X":-75.3790876026,"Y":38.6782275221,"NAME":"16 Mile Brewing Co","URL":null},"geometry":{"type":"Point","coordinates":[-75.37908760299996,38.67822752200004]}},{"type":"Feature","properties":{"X":-75.2564085783,"Y":43.2420604274,"NAME":"16 Stone Brewpub","URL":null},"geometry":{"type":"Point","coordinates":[-75.25640857799993,43.24206042700007]}},{"type":"Feature","properties":{"X":-76.9980663361,"Y":39.5462884294,"NAME":"1623 Brewing CO, llc","URL":null},"geometry":{"type":"Point","coordinates":[-76.99806633599997,39.54628842900007]}},{"type":"Feature","properties":{"X":-75.9718959056,"Y":35.10715571,"NAME":"1718 Ocracoke Brewing","URL":null},"geometry":{"type":"Point","coordinates":[-75.97189590599999,35.10715571000003]}},{"type":"Feature","properties":{"X":-77.7188362418,"Y":38.3244293097,"NAME":"1781 Brewing Company","URL":null},"geometry":{"type":"Point","coordinates":[-77.71883624199995,38.32442931000003]}},{"type":"Feature","properties":{"X":-80.1506048196,"Y":40.5077692842,"NAME":"180 and Tapped","URL":null},"geometry":{"type":"Point","coordinates":[-80.15060481999996,40.50776928400006]}},{"type":"Feature","properties":{"X":-88.7498423734,"Y":34.0044726056,"NAME":"1817 Brewery","URL":null},"geometry":{"type":"Point","coordinates":[-88.74984237299998,34.004472606000036]}},{"type":"Feature","properties":{"X":-87.9061067497,"Y":43.0043495544,"NAME":"1840 Brewing Company","URL":null},"geometry":{"type":"Point","coordinates":[-87.90610674999994,43.004349554000044]}},{"type":"Feature","properties":{"X":-87.5174662684,"Y":41.6151363353,"NAME":"18th Street Brewery","URL":null},"geometry":{"type":"Point","coordinates":[-87.51746626799996,41.615136335000045]}},{"type":"Feature","properties":{"X":-87.2689593721,"Y":41.5992866283,"NAME":"18th Street Brewery","URL":null},"geometry":{"type":"Point","coordinates":[-87.26895937199998,41.59928662800007]}},{"type":"Feature","properties":{"X":-110.993452315,"Y":32.2468138001,"NAME":"1912 Brewing","URL":null},"geometry":{"type":"Point","coordinates":[-110.99345231499996,32.24681380000004]}},{"type":"Feature","properties":{"X":-122.242619996,"Y":47.7564100189,"NAME":"192 Brewing","URL":"http://192brewing.com/"},"geometry":{"type":"Point","coordinates":[-122.24261999599997,47.75641001900004]}},{"type":"Feature","properties":{"X":-73.0842279955,"Y":40.7832733128,"NAME":"1940's Brewing Company","URL":null},"geometry":{"type":"Point","coordinates":[-73.08422799499994,40.78327331300005]}},{"type":"Feature","properties":{"X":-73.0848987768,"Y":44.4834554644,"NAME":"1st Republic Brewing Co","URL":null},"geometry":{"type":"Point","coordinates":[-73.08489877699998,44.48345546400003]}},{"type":"Feature","properties":{"X":-110.900992835,"Y":46.5481604707,"NAME":"2 Basset Brewery","URL":null},"geometry":{"type":"Point","coordinates":[-110.90099283499995,46.548160471000074]}},{"type":"Feature","properties":{"X":-75.8778045185,"Y":41.8325891288,"NAME":"2 Dogz and A Guy Brewing","URL":null},"geometry":{"type":"Point","coordinates":[-75.87780451799995,41.83258912900004]}},{"type":"Feature","properties":{"X":-68.7728530115,"Y":44.8002220758,"NAME":"2 Feet Brewing Company","URL":null},"geometry":{"type":"Point","coordinates":[-68.77285301199998,44.80022207600007]}},{"type":"Feature","properties":{"X":-111.899699233,"Y":40.6268271932,"NAME":"2 Row Brewing","URL":null},"geometry":{"type":"Point","coordinates":[-111.89969923299998,40.626827193000054]}},{"type":"Feature","properties":{"X":-77.5237377,"Y":38.7863329,"NAME":"2 Silos Brewing Company","URL":null},"geometry":{"type":"Point","coordinates":[-77.5237377,38.78633290000005]}},{"type":"Feature","properties":{"X":-122.717650657,"Y":38.4397596401,"NAME":"2 Tread Brewing Co","URL":null},"geometry":{"type":"Point","coordinates":[-122.71765065699998,38.439759640000034]}},{"type":"Feature","properties":{"X":-73.980685174,"Y":41.5080060636,"NAME":"2 Way Brewing Company","URL":null},"geometry":{"type":"Point","coordinates":[-73.98068517399997,41.50800606400003]}},{"type":"Feature","properties":{"X":-79.4215445963,"Y":36.5857850993,"NAME":"2 Witches Winery and Brewing Company","URL":null},"geometry":{"type":"Point","coordinates":[-79.42154459599999,36.58578509900008]}},{"type":"Feature","properties":{"X":-122.15303754,"Y":47.7655448442,"NAME":"20 Corners Brewing LLC","URL":null},"geometry":{"type":"Point","coordinates":[-122.15303753999996,47.76554484400003]}},{"type":"Feature","properties":{"X":-122.184190996,"Y":48.2150475095,"NAME":"210 Brewing Co","URL":null},"geometry":{"type":"Point","coordinates":[-122.18419099599998,48.21504751000003]}},{"type":"Feature","properties":{"X":-74.7529517049,"Y":42.4412471606,"NAME":"212 Brewing Company","URL":null},"geometry":{"type":"Point","coordinates":[-74.75295170499999,42.441247161000035]}},{"type":"Feature","properties":{"X":-77.9123100345,"Y":35.722815254,"NAME":"217 Brew Works","URL":null},"geometry":{"type":"Point","coordinates":[-77.91231003499996,35.72281525400007]}},{"type":"Feature","properties":{"X":-122.176692333,"Y":37.7106100823,"NAME":"21st Amendment Brewery","URL":null},"geometry":{"type":"Point","coordinates":[-122.17669233299995,37.71061008200007]}},{"type":"Feature","properties":{"X":-122.392669959,"Y":37.782360015,"NAME":"21st Amendment Brewery Cafe","URL":"http://21st-amendment.com/"},"geometry":{"type":"Point","coordinates":[-122.39266995899999,37.78236001500005]}},{"type":"Feature","properties":{"X":-82.7659429341,"Y":37.697462243,"NAME":"23 Brewing Company / Lizzie B's Cafe","URL":null},"geometry":{"type":"Point","coordinates":[-82.76594293399995,37.697462243000075]}},{"type":"Feature","properties":{"X":-117.3543746,"Y":47.7699884,"NAME":"238 Brewing Company","URL":null},"geometry":{"type":"Point","coordinates":[-117.35437459999997,47.769988400000045]}},{"type":"Feature","properties":{"X":-95.28091,"Y":38.9427300772,"NAME":"23rd Street Brewery","URL":"http://www.brew23.com/"},"geometry":{"type":"Point","coordinates":[-95.28091,38.94273007700008]}},{"type":"Feature","properties":{"X":-80.0971115554,"Y":26.2317415101,"NAME":"26 Degree Brewing Company","URL":null},"geometry":{"type":"Point","coordinates":[-80.09711155499997,26.231741510000063]}},{"type":"Feature","properties":{"X":-117.13680471,"Y":32.8962260511,"NAME":"2Kids Brewing Company","URL":null},"geometry":{"type":"Point","coordinates":[-117.13680470999998,32.89622605100004]}},{"type":"Feature","properties":{"X":-90.2805646272,"Y":38.6213286001,"NAME":"2nd Shift Brewing Co","URL":null},"geometry":{"type":"Point","coordinates":[-90.28056462699999,38.62132860000003]}},{"type":"Feature","properties":{"X":-75.1435099817,"Y":39.9483200405,"NAME":"2nd Story Brewing Company","URL":"http://www.2ndstorybrewing.com/"},"geometry":{"type":"Point","coordinates":[-75.14350998199996,39.948320041000045]}},{"type":"Feature","properties":{"X":-75.4057634429,"Y":39.8562936196,"NAME":"2SP Brewing Company","URL":null},"geometry":{"type":"Point","coordinates":[-75.40576344299996,39.85629362000003]}},{"type":"Feature","properties":{"X":-72.7303682447,"Y":42.392622104,"NAME":"3 Beards Beer Company","URL":null},"geometry":{"type":"Point","coordinates":[-72.73036824499997,42.392622104000054]}},{"type":"Feature","properties":{"X":-82.6629804269,"Y":27.7688060255,"NAME":"3 Daughters Brewing","URL":null},"geometry":{"type":"Point","coordinates":[-82.66298042699998,27.76880602600005]}},{"type":"Feature","properties":{"X":-122.788474573,"Y":38.3494566509,"NAME":"3 Disciples Brewing","URL":null},"geometry":{"type":"Point","coordinates":[-122.78847457299997,38.349456651000025]}},{"type":"Feature","properties":{"X":-104.905701388,"Y":39.5652925029,"NAME":"3 Freaks Brewing Co","URL":null},"geometry":{"type":"Point","coordinates":[-104.90570138799995,39.56529250300008]}},{"type":"Feature","properties":{"X":-117.306920295,"Y":34.055892,"NAME":"3 Iron Brewing Company","URL":null},"geometry":{"type":"Point","coordinates":[-117.30692029499994,34.055892]}},{"type":"Feature","properties":{"X":-82.5327315,"Y":27.496371516,"NAME":"3 Keys Brewing Company, LLC","URL":null},"geometry":{"type":"Point","coordinates":[-82.53273149999995,27.496371516000067]}},{"type":"Feature","properties":{"X":-96.8983019162,"Y":32.9305975226,"NAME":"3 Nations Brewing","URL":null},"geometry":{"type":"Point","coordinates":[-96.89830191599998,32.930597523000074]}},{"type":"Feature","properties":{"X":-87.7307715,"Y":43.7739125467,"NAME":"3 Sheeps Brewing Co","URL":null},"geometry":{"type":"Point","coordinates":[-87.73077149999995,43.773912547000066]}},{"type":"Feature","properties":{"X":-123.127197736,"Y":44.6596012234,"NAME":"3 Sheets Brewery","URL":null},"geometry":{"type":"Point","coordinates":[-123.12719773599997,44.65960122300004]}},{"type":"Feature","properties":{"X":-80.1437894154,"Y":26.0570699475,"NAME":"3 Sons Brewing Co.","URL":null},"geometry":{"type":"Point","coordinates":[-80.14378941499996,26.05706994800005]}},{"type":"Feature","properties":{"X":-77.0127435,"Y":38.967552,"NAME":"3 Stars Brewing Co","URL":null},"geometry":{"type":"Point","coordinates":[-77.01274349999994,38.967552]}},{"type":"Feature","properties":{"X":-72.3696261199,"Y":41.3023876839,"NAME":"30 Mile Brewing Co.","URL":null},"geometry":{"type":"Point","coordinates":[-72.36962611999996,41.30238768400005]}},{"type":"Feature","properties":{"X":-105.101064,"Y":40.1601844774,"NAME":"300 Suns Brewing Company","URL":null},"geometry":{"type":"Point","coordinates":[-105.101064,40.16018447700003]}},{"type":"Feature","properties":{"X":-117.165829852,"Y":32.8827039462,"NAME":"32 North Brewing Co","URL":null},"geometry":{"type":"Point","coordinates":[-117.16582985199994,32.88270394600005]}},{"type":"Feature","properties":{"X":-78.3860496513,"Y":33.9728355543,"NAME":"34 Degree North Experiment Station","URL":null},"geometry":{"type":"Point","coordinates":[-78.38604965099995,33.97283555400003]}},{"type":"Feature","properties":{"X":-87.7919718435,"Y":41.5586083109,"NAME":"350 Brewing Co","URL":null},"geometry":{"type":"Point","coordinates":[-87.79197184299994,41.55860831100006]}},{"type":"Feature","properties":{"X":-104.9886665,"Y":39.5704338668,"NAME":"38 State Brewing","URL":null},"geometry":{"type":"Point","coordinates":[-104.98866649999997,39.57043386700008]}},{"type":"Feature","properties":{"X":-75.0749791919,"Y":38.6953661626,"NAME":"38°-75° Brewing","URL":null},"geometry":{"type":"Point","coordinates":[-75.07497919199994,38.695366163000074]}},{"type":"Feature","properties":{"X":-71.8302312475,"Y":42.2440578271,"NAME":"3cross Brewing Company","URL":null},"geometry":{"type":"Point","coordinates":[-71.83023124799996,42.24405782700006]}},{"type":"Feature","properties":{"X":-86.4796096979,"Y":30.5204461491,"NAME":"3rd Planet Brewing","URL":null},"geometry":{"type":"Point","coordinates":[-86.47960969799999,30.520446149000065]}},{"type":"Feature","properties":{"X":-77.3663535563,"Y":35.069008622,"NAME":"3rd Rock Brewing Company","URL":null},"geometry":{"type":"Point","coordinates":[-77.36635355599998,35.06900862200007]}},{"type":"Feature","properties":{"X":-85.5667562598,"Y":38.1934114588,"NAME":"3rd Turn Brewing","URL":null},"geometry":{"type":"Point","coordinates":[-85.56675625999998,38.19341145900006]}},{"type":"Feature","properties":{"X":-75.5742088237,"Y":38.4604599602,"NAME":"3rd Wave Brewing Co","URL":null},"geometry":{"type":"Point","coordinates":[-75.57420882399998,38.46045996000004]}},{"type":"Feature","properties":{"X":-93.2399101363,"Y":37.1475344788,"NAME":"4 By 4 Brewing Company","URL":null},"geometry":{"type":"Point","coordinates":[-93.23991013599999,37.14753447900006]}},{"type":"Feature","properties":{"X":-90.1979224753,"Y":38.6147600369,"NAME":"4 Hands Brewing Co","URL":null},"geometry":{"type":"Point","coordinates":[-90.19792247499998,38.61476003700005]}},{"type":"Feature","properties":{"X":-105.098603907,"Y":39.9035360293,"NAME":"4 Noses Brewing Company","URL":null},"geometry":{"type":"Point","coordinates":[-105.09860390699998,39.903536029000065]}},{"type":"Feature","properties":{"X":-97.4684212622,"Y":35.2573515506,"NAME":"405 Brewing Co","URL":null},"geometry":{"type":"Point","coordinates":[-97.46842126199994,35.257351551000056]}},{"type":"Feature","properties":{"X":-111.036039591,"Y":45.6928834829,"NAME":"406 Brewing Company","URL":null},"geometry":{"type":"Point","coordinates":[-111.03603959099996,45.69288348300006]}},{"type":"Feature","properties":{"X":-80.0618853945,"Y":40.4727563289,"NAME":"412 Brews","URL":null},"geometry":{"type":"Point","coordinates":[-80.06188539499999,40.47275632900005]}},{"type":"Feature","properties":{"X":-78.6079744581,"Y":42.7685595492,"NAME":"42 North Brewing Company","URL":null},"geometry":{"type":"Point","coordinates":[-78.60797445799994,42.76855954900003]}},{"type":"Feature","properties":{"X":-85.83187,"Y":39.26828,"NAME":"450 North Brewing Company @ Simmons Winery","URL":null},"geometry":{"type":"Point","coordinates":[-85.83187,39.26828]}},{"type":"Feature","properties":{"X":-122.41388879,"Y":37.6443288554,"NAME":"47 Hills Brewing Co","URL":null},"geometry":{"type":"Point","coordinates":[-122.41388878999999,37.644328855000026]}},{"type":"Feature","properties":{"X":-148.238586343,"Y":63.907475,"NAME":"49th State Brewing Co","URL":null},"geometry":{"type":"Point","coordinates":[-148.23858634299998,63.907475]}},{"type":"Feature","properties":{"X":-149.8960935,"Y":61.2195534677,"NAME":"49th State Brewing Co - Anchorage","URL":null},"geometry":{"type":"Point","coordinates":[-149.89609349999998,61.21955346800007]}},{"type":"Feature","properties":{"X":-107.925750136,"Y":38.9006445545,"NAME":"4B's Brewery","URL":null},"geometry":{"type":"Point","coordinates":[-107.92575013599998,38.90064455500004]}},{"type":"Feature","properties":{"X":-84.3417444149,"Y":41.2921530935,"NAME":"4kd Crick Brewery","URL":null},"geometry":{"type":"Point","coordinates":[-84.34174441499994,41.29215309400007]}},{"type":"Feature","properties":{"X":-97.712295357,"Y":30.3853601118,"NAME":"4th Tap Brewing Cooperative","URL":null},"geometry":{"type":"Point","coordinates":[-97.71229535699996,30.385360112000058]}},{"type":"Feature","properties":{"X":-85.7065913187,"Y":42.7249652134,"NAME":"5 Lakes Brewing Co.","URL":null},"geometry":{"type":"Point","coordinates":[-85.70659131899998,42.724965213000075]}},{"type":"Feature","properties":{"X":-87.7796041378,"Y":41.7575804427,"NAME":"5 Rabbit Cerveceria Inc","URL":null},"geometry":{"type":"Point","coordinates":[-87.77960413799997,41.75758044300005]}},{"type":"Feature","properties":{"X":-122.136169972,"Y":48.0374405323,"NAME":"5 Rights Brewing Co","URL":null},"geometry":{"type":"Point","coordinates":[-122.13616997199995,48.03744053200006]}},{"type":"Feature","properties":{"X":-84.3787845508,"Y":33.9088217427,"NAME":"5 Seasons Brewing Co - Prado","URL":null},"geometry":{"type":"Point","coordinates":[-84.37878455099997,33.90882174300003]}},{"type":"Feature","properties":{"X":-84.4103600117,"Y":33.7790899222,"NAME":"5 Seasons Brewing Co - Westside","URL":"http://www.5seasonsbrewing.com"},"geometry":{"type":"Point","coordinates":[-84.41036001199996,33.779089922000026]}},{"type":"Feature","properties":{"X":-98.2591227625,"Y":29.5967848365,"NAME":"5 Stones Artisan Brewery","URL":null},"geometry":{"type":"Point","coordinates":[-98.25912276299994,29.59678483700003]}},{"type":"Feature","properties":{"X":-97.7695928109,"Y":30.223619635,"NAME":"512 Brewing Co","URL":null},"geometry":{"type":"Point","coordinates":[-97.76959281099994,30.223619635000034]}},{"type":"Feature","properties":{"X":-93.7227735,"Y":41.6003515173,"NAME":"515 Brewing Co","URL":null},"geometry":{"type":"Point","coordinates":[-93.7227735,41.600351517000036]}},{"type":"Feature","properties":{"X":-121.208713386,"Y":38.8022375261,"NAME":"5150 Brewing At The Brass Tap Rocklin","URL":null},"geometry":{"type":"Point","coordinates":[-121.20871338599994,38.802237526000056]}},{"type":"Feature","properties":{"X":-88.0880904176,"Y":45.8079822315,"NAME":"51st State Brewing Company","URL":null},"geometry":{"type":"Point","coordinates":[-88.08809041799998,45.80798223200003]}},{"type":"Feature","properties":{"X":-87.9811951906,"Y":41.8044698696,"NAME":"51st Ward Beer Company","URL":null},"geometry":{"type":"Point","coordinates":[-87.98119519099998,41.80446987000005]}},{"type":"Feature","properties":{"X":-122.327267336,"Y":45.5644832046,"NAME":"54-40 Brewing Company","URL":null},"geometry":{"type":"Point","coordinates":[-122.32726733599998,45.564483205000045]}},{"type":"Feature","properties":{"X":-107.994601782,"Y":36.8211846622,"NAME":"550 Brewing","URL":null},"geometry":{"type":"Point","coordinates":[-107.99460178199996,36.821184662000064]}},{"type":"Feature","properties":{"X":-119.701741835,"Y":36.8252384996,"NAME":"559 Local Brewing","URL":null},"geometry":{"type":"Point","coordinates":[-119.70174183499995,36.82523850000007]}},{"type":"Feature","properties":{"X":-93.2728436501,"Y":45.023679,"NAME":"56 Brewing","URL":null},"geometry":{"type":"Point","coordinates":[-93.27284365,45.023679]}},{"type":"Feature","properties":{"X":-85.2728400511,"Y":43.1773200522,"NAME":"57 Brew Pub &  Bistro","URL":"http://57brewpub.com"},"geometry":{"type":"Point","coordinates":[-85.27284005099995,43.17732005200003]}},{"type":"Feature","properties":{"X":-77.5135075708,"Y":38.362373277,"NAME":"6 Bears &  A Goat Brewing Company, LLC","URL":null},"geometry":{"type":"Point","coordinates":[-77.51350757099993,38.362373277000074]}},{"type":"Feature","properties":{"X":-73.8679000622,"Y":41.1587500805,"NAME":"6 Degrees of Separation","URL":"http://www.6degreesbp.com"},"geometry":{"type":"Point","coordinates":[-73.86790006199993,41.15875008100005]}},{"type":"Feature","properties":{"X":-71.3646920419,"Y":42.9149276919,"NAME":"603 Brewery","URL":null},"geometry":{"type":"Point","coordinates":[-71.36469204199994,42.91492769200005]}},{"type":"Feature","properties":{"X":-93.2467005,"Y":44.9987704971,"NAME":"612 Brew","URL":null},"geometry":{"type":"Point","coordinates":[-93.24670049999997,44.998770497000066]}},{"type":"Feature","properties":{"X":-124.21466,"Y":43.36655,"NAME":"7 Devils Brewing Co","URL":"http://www.7devilsbrewery.com"},"geometry":{"type":"Point","coordinates":[-124.21466,43.36655]}},{"type":"Feature","properties":{"X":-106.828352,"Y":39.65802,"NAME":"7 Hermits Brewing Company","URL":null},"geometry":{"type":"Point","coordinates":[-106.828352,39.65802]}},{"type":"Feature","properties":{"X":-90.663454912,"Y":42.5045755333,"NAME":"7 Hills Brewing Company","URL":null},"geometry":{"type":"Point","coordinates":[-90.66345491199996,42.504575533000036]}},{"type":"Feature","properties":{"X":-77.1101111724,"Y":39.0558169359,"NAME":"7 Locks Brewing","URL":null},"geometry":{"type":"Point","coordinates":[-77.11011117199996,39.05581693600004]}},{"type":"Feature","properties":{"X":-74.761334,"Y":39.052176,"NAME":"7 Mile Brewery","URL":null},"geometry":{"type":"Point","coordinates":[-74.761334,39.052176]}},{"type":"Feature","properties":{"X":-122.439181602,"Y":47.2417473666,"NAME":"7 Seas Brewing Co","URL":null},"geometry":{"type":"Point","coordinates":[-122.43918160199996,47.24174736700007]}},{"type":"Feature","properties":{"X":-79.7487806905,"Y":42.2492703436,"NAME":"7 Sins Brewery","URL":null},"geometry":{"type":"Point","coordinates":[-79.74878069099998,42.24927034400008]}},{"type":"Feature","properties":{"X":-120.669640609,"Y":35.2467379992,"NAME":"7 Sisters Brewing Co","URL":null},"geometry":{"type":"Point","coordinates":[-120.66964060899994,35.24673799900006]}},{"type":"Feature","properties":{"X":-88.7309999556,"Y":37.1542299522,"NAME":"718BrewCafe, LLP","URL":null},"geometry":{"type":"Point","coordinates":[-88.73099995599995,37.15422995200004]}},{"type":"Feature","properties":{"X":-70.87503,"Y":43.19497,"NAME":"7th Settlement Brewery","URL":null},"geometry":{"type":"Point","coordinates":[-70.87503,43.19497]}},{"type":"Feature","properties":{"X":-71.3265759651,"Y":42.1936271323,"NAME":"7th Wave Brewing","URL":null},"geometry":{"type":"Point","coordinates":[-71.32657596499996,42.193627132000074]}},{"type":"Feature","properties":{"X":-82.789895492,"Y":28.0166085259,"NAME":"7venth Sun Brewery","URL":null},"geometry":{"type":"Point","coordinates":[-82.78989549199997,28.016608526000027]}},{"type":"Feature","properties":{"X":-82.4512723903,"Y":28.009989,"NAME":"7venth Sun Tampa","URL":null},"geometry":{"type":"Point","coordinates":[-82.45127238999999,28.009989]}},{"type":"Feature","properties":{"X":-117.175990078,"Y":33.53030993,"NAME":"8 Bit Brewing Company","URL":"http://www.8bitbrewingcompany.com/"},"geometry":{"type":"Point","coordinates":[-117.17599007799998,33.530309930000044]}},{"type":"Feature","properties":{"X":-82.5198728448,"Y":27.8934920895,"NAME":"81Bay Brewing Company","URL":null},"geometry":{"type":"Point","coordinates":[-82.51987284499995,27.893492090000052]}},{"type":"Feature","properties":{"X":-88.712587088,"Y":42.8320627171,"NAME":"841 Brewhouse","URL":null},"geometry":{"type":"Point","coordinates":[-88.71258708799996,42.83206271700004]}},{"type":"Feature","properties":{"X":-112.323862943,"Y":33.4534971787,"NAME":"8-Bit Aleworks","URL":null},"geometry":{"type":"Point","coordinates":[-112.32386294299994,33.45349717900007]}},{"type":"Feature","properties":{"X":-118.588616743,"Y":34.233284833,"NAME":"8one8 Brewing Company","URL":null},"geometry":{"type":"Point","coordinates":[-118.58861674299999,34.23328483300003]}},{"type":"Feature","properties":{"X":-87.7129600811,"Y":43.75726,"NAME":"8th Street Ale Haus","URL":null},"geometry":{"type":"Point","coordinates":[-87.71296008099995,43.75726]}},{"type":"Feature","properties":{"X":-95.3556553909,"Y":29.7491207541,"NAME":"8th Wonder Brewery","URL":null},"geometry":{"type":"Point","coordinates":[-95.35565539099997,29.749120754000046]}},{"type":"Feature","properties":{"X":-96.6069637867,"Y":33.6178807086,"NAME":"903 Brewers","URL":null},"geometry":{"type":"Point","coordinates":[-96.60696378699998,33.617880709000076]}},{"type":"Feature","properties":{"X":-121.098698682,"Y":35.5666415132,"NAME":"927 Beer Company","URL":null},"geometry":{"type":"Point","coordinates":[-121.09869868199996,35.566641513000036]}},{"type":"Feature","properties":{"X":-81.6546691915,"Y":30.310668,"NAME":"Aardwolf Brewing Company","URL":null},"geometry":{"type":"Point","coordinates":[-81.65466919099998,30.310668]}},{"type":"Feature","properties":{"X":-77.1052651025,"Y":42.6306424762,"NAME":"Abandon Brewing","URL":null},"geometry":{"type":"Point","coordinates":[-77.10526510199998,42.63064247600005]}},{"type":"Feature","properties":{"X":-72.6613286704,"Y":42.2743139011,"NAME":"Abandoned Building Brewery","URL":null},"geometry":{"type":"Point","coordinates":[-72.66132866999999,42.27431390100003]}},{"type":"Feature","properties":{"X":-80.14014,"Y":25.78894,"NAME":"Abbey Brewing Co","URL":null},"geometry":{"type":"Point","coordinates":[-80.14014,25.78894]}},{"type":"Feature","properties":{"X":-105.9584705,"Y":35.654685,"NAME":"Abbey Brewing Company, LLC","URL":null},"geometry":{"type":"Point","coordinates":[-105.95847049999998,35.654685]}},{"type":"Feature","properties":{"X":-84.3218626998,"Y":34.0475099631,"NAME":"Abbey of the Holy Goats","URL":null},"geometry":{"type":"Point","coordinates":[-84.3218627,34.04750996300004]}},{"type":"Feature","properties":{"X":-83.930924532,"Y":42.6075486712,"NAME":"Aberrant Ales","URL":null},"geometry":{"type":"Point","coordinates":[-83.93092453199995,42.607548671000075]}},{"type":"Feature","properties":{"X":-84.7635029454,"Y":33.400224,"NAME":"Abide Brewing Company","URL":null},"geometry":{"type":"Point","coordinates":[-84.76350294499997,33.400224]}},{"type":"Feature","properties":{"X":-118.399350041,"Y":33.8632899817,"NAME":"Abigaile","URL":"http://abigailerestaurant.com"},"geometry":{"type":"Point","coordinates":[-118.39935004099999,33.863289982000026]}},{"type":"Feature","properties":{"X":-90.0554704739,"Y":30.4814980742,"NAME":"Abita Brewing Co","URL":null},"geometry":{"type":"Point","coordinates":[-90.05547047399995,30.481498074000058]}},{"type":"Feature","properties":{"X":-80.072592052,"Y":40.4718736264,"NAME":"Abjuration Brewing","URL":null},"geometry":{"type":"Point","coordinates":[-80.07259205199995,40.47187362600005]}},{"type":"Feature","properties":{"X":-115.328961754,"Y":36.141375554,"NAME":"Able Baker Brewing","URL":null},"geometry":{"type":"Point","coordinates":[-115.32896175399998,36.141375554000035]}},{"type":"Feature","properties":{"X":-71.4933284693,"Y":42.8526132856,"NAME":"Able Ebenezer Brewing Company","URL":null},"geometry":{"type":"Point","coordinates":[-71.49332846899995,42.852613286000064]}},{"type":"Feature","properties":{"X":-93.2511671564,"Y":44.9990027476,"NAME":"Able Seedhouse and Brewery","URL":null},"geometry":{"type":"Point","coordinates":[-93.25116715599995,44.999002748000066]}},{"type":"Feature","properties":{"X":-85.8106949,"Y":43.6862212,"NAME":"Abner's Restaurant Inc / Northern Michigan Beer","URL":null},"geometry":{"type":"Point","coordinates":[-85.81069489999999,43.686221200000034]}},{"type":"Feature","properties":{"X":-117.085424016,"Y":33.023799995,"NAME":"Abnormal Beer Company","URL":null},"geometry":{"type":"Point","coordinates":[-117.08542401599999,33.02379999500005]}},{"type":"Feature","properties":{"X":-77.8609418526,"Y":39.2887024582,"NAME":"Abolitionist Ale Works","URL":null},"geometry":{"type":"Point","coordinates":[-77.86094185299999,39.288702458000046]}},{"type":"Feature","properties":{"X":-84.0158566678,"Y":35.931551353,"NAME":"Abridged Beer Company","URL":null},"geometry":{"type":"Point","coordinates":[-84.01585666799997,35.93155135300003]}},{"type":"Feature","properties":{"X":-118.337913723,"Y":33.8441425012,"NAME":"Absolution Brewing Co","URL":null},"geometry":{"type":"Point","coordinates":[-118.33791372299999,33.84414250100008]}},{"type":"Feature","properties":{"X":-117.273981628,"Y":32.8408153694,"NAME":"Absolution By the Sea","URL":null},"geometry":{"type":"Point","coordinates":[-117.27398162799994,32.84081536900004]}},{"type":"Feature","properties":{"X":-104.814289818,"Y":41.1320017313,"NAME":"Accomplice Beer Company","URL":null},"geometry":{"type":"Point","coordinates":[-104.81428981799996,41.13200173100006]}},{"type":"Feature","properties":{"X":-105.104328816,"Y":39.5938490022,"NAME":"Acidulous Brewing Company","URL":null},"geometry":{"type":"Point","coordinates":[-105.10432881599996,39.59384900200007]}},{"type":"Feature","properties":{"X":-98.0891005809,"Y":30.1927385395,"NAME":"Acopon Brewing Co","URL":null},"geometry":{"type":"Point","coordinates":[-98.08910058099997,30.19273854000005]}},{"type":"Feature","properties":{"X":-117.184597305,"Y":32.7425109186,"NAME":"Acoustic Ales Brewing Experiment","URL":null},"geometry":{"type":"Point","coordinates":[-117.18459730499995,32.74251091900004]}},{"type":"Feature","properties":{"X":-82.907143443,"Y":39.9861405635,"NAME":"Actual Brewing Company, LLC","URL":null},"geometry":{"type":"Point","coordinates":[-82.90714344299994,39.98614056300005]}},{"type":"Feature","properties":{"X":-121.970800008,"Y":47.85604,"NAME":"Adam's Northwest Bistro / Twin Rivers Brewing","URL":null},"geometry":{"type":"Point","coordinates":[-121.97080000799997,47.85604]}},{"type":"Feature","properties":{"X":-97.7208240756,"Y":30.3823362248,"NAME":"Adelbert's Brewery LLC","URL":null},"geometry":{"type":"Point","coordinates":[-97.72082407599999,30.382336225000074]}},{"type":"Feature","properties":{"X":-73.7135800378,"Y":43.4186199961,"NAME":"Adirondack Pub and Brewery","URL":"http://adkbrewery.com/"},"geometry":{"type":"Point","coordinates":[-73.71358003799998,43.418619996000075]}},{"type":"Feature","properties":{"X":-75.4756808233,"Y":44.331314078,"NAME":"Adirondack Toboggan Company Microbrewery","URL":null},"geometry":{"type":"Point","coordinates":[-75.47568082299995,44.33131407800005]}},{"type":"Feature","properties":{"X":-77.0099805,"Y":38.897055,"NAME":"AdMerk Corp. Inc.","URL":null},"geometry":{"type":"Point","coordinates":[-77.00998049999998,38.897055]}},{"type":"Feature","properties":{"X":-122.535539202,"Y":38.0735730855,"NAME":"Adobe Creek Brewing Company","URL":null},"geometry":{"type":"Point","coordinates":[-122.53553920199994,38.07357308500008]}},{"type":"Feature","properties":{"X":-77.7208375684,"Y":39.1438978637,"NAME":"Adroit Theory Brewing Company","URL":null},"geometry":{"type":"Point","coordinates":[-77.72083756799998,39.14389786400005]}},{"type":"Feature","properties":{"X":-77.4409141704,"Y":38.3839104192,"NAME":"Adventure Brewing Co","URL":null},"geometry":{"type":"Point","coordinates":[-77.44091416999999,38.383910419000074]}},{"type":"Feature","properties":{"X":-77.4480246557,"Y":38.2801430241,"NAME":"Adventure South","URL":null},"geometry":{"type":"Point","coordinates":[-77.44802465599997,38.28014302400004]}},{"type":"Feature","properties":{"X":-97.3506577239,"Y":37.6846556647,"NAME":"Aero Plains Brewing","URL":null},"geometry":{"type":"Point","coordinates":[-97.35065772399997,37.68465566500004]}},{"type":"Feature","properties":{"X":-71.1051156873,"Y":42.3816478976,"NAME":"Aeronaut Brewing Company","URL":null},"geometry":{"type":"Point","coordinates":[-71.10511568699997,42.38164789800004]}},{"type":"Feature","properties":{"X":-117.144999685,"Y":33.4880597766,"NAME":"Aftershock Brewing Co","URL":null},"geometry":{"type":"Point","coordinates":[-117.14499968499996,33.488059777000046]}},{"type":"Feature","properties":{"X":-88.0222507998,"Y":41.9054552386,"NAME":"Afterthought Brewing Company","URL":null},"geometry":{"type":"Point","coordinates":[-88.02225079999994,41.90545523900005]}},{"type":"Feature","properties":{"X":-85.7456199561,"Y":38.2554400589,"NAME":"Against the Grain Brewery","URL":"http://www.atgbrewery.com/"},"geometry":{"type":"Point","coordinates":[-85.74561995599998,38.25544005900008]}},{"type":"Feature","properties":{"X":-85.7765905135,"Y":38.2659626689,"NAME":"Against the Grain Production Facility","URL":null},"geometry":{"type":"Point","coordinates":[-85.77659051299997,38.26596266900003]}},{"type":"Feature","properties":{"X":-123.129302354,"Y":44.1890154756,"NAME":"Agrarian Ales, LLC","URL":null},"geometry":{"type":"Point","coordinates":[-123.12930235399995,44.189015476000066]}},{"type":"Feature","properties":{"X":-87.4786416429,"Y":44.655957,"NAME":"Ahnapee Brewery","URL":null},"geometry":{"type":"Point","coordinates":[-87.47864164299995,44.655957]}},{"type":"Feature","properties":{"X":-71.4685272818,"Y":42.9899055082,"NAME":"Aigean Ales","URL":null},"geometry":{"type":"Point","coordinates":[-71.46852728199997,42.98990550800005]}},{"type":"Feature","properties":{"X":-81.7229199811,"Y":33.5603399634,"NAME":"Aiken Brewing Co","URL":"http://aikenbrewingcompany.com/"},"geometry":{"type":"Point","coordinates":[-81.72291998099996,33.56033996300005]}},{"type":"Feature","properties":{"X":-68.3662105597,"Y":44.8319225465,"NAME":"Airline Brewing Company","URL":null},"geometry":{"type":"Point","coordinates":[-68.36621055999996,44.83192254700003]}},{"type":"Feature","properties":{"X":-122.224679749,"Y":47.4120415462,"NAME":"Airways Brewing Co","URL":null},"geometry":{"type":"Point","coordinates":[-122.22467974899996,47.41204154600007]}},{"type":"Feature","properties":{"X":-83.4708296973,"Y":33.9419661643,"NAME":"Akademia Brewing Company","URL":null},"geometry":{"type":"Point","coordinates":[-83.47082969699994,33.941966164000064]}},{"type":"Feature","properties":{"X":-85.7354807412,"Y":38.2529504166,"NAME":"Akasha Brewing Company","URL":null},"geometry":{"type":"Point","coordinates":[-85.73548074099995,38.25295041700008]}},{"type":"Feature","properties":{"X":-122.613651974,"Y":45.5483034677,"NAME":"Alameda Brewing Co","URL":null},"geometry":{"type":"Point","coordinates":[-122.61365197399999,45.54830346800003]}},{"type":"Feature","properties":{"X":-122.641464786,"Y":45.4891678324,"NAME":"Alameda Brewing Co","URL":null},"geometry":{"type":"Point","coordinates":[-122.64146478599997,45.48916783200008]}},{"type":"Feature","properties":{"X":-122.239090144,"Y":37.7685869522,"NAME":"Alameda Island Brewing Company","URL":null},"geometry":{"type":"Point","coordinates":[-122.23909014399999,37.76858695200008]}},{"type":"Feature","properties":{"X":-98.4775811123,"Y":29.4289434893,"NAME":"Alamo Beer Co","URL":null},"geometry":{"type":"Point","coordinates":[-98.47758111199994,29.428943489000062]}},{"type":"Feature","properties":{"X":-87.7310425555,"Y":41.9900775428,"NAME":"Alarmist Brewing Co","URL":null},"geometry":{"type":"Point","coordinates":[-87.73104255599998,41.99007754300004]}},{"type":"Feature","properties":{"X":-134.48899,"Y":58.3567300117,"NAME":"Alaskan Brewing Co.","URL":null},"geometry":{"type":"Point","coordinates":[-134.48899,58.35673001200007]}},{"type":"Feature","properties":{"X":-92.8078335,"Y":41.0271505038,"NAME":"Albia Brewing Co","URL":null},"geometry":{"type":"Point","coordinates":[-92.80783349999996,41.027150504000076]}},{"type":"Feature","properties":{"X":-72.7437592137,"Y":44.350722882,"NAME":"Alchemist Cannery","URL":null},"geometry":{"type":"Point","coordinates":[-72.74375921399997,44.35072288200007]}},{"type":"Feature","properties":{"X":-76.9765066623,"Y":39.7907220505,"NAME":"Aldus Brewing Company","URL":null},"geometry":{"type":"Point","coordinates":[-76.97650666199996,39.790722050000056]}},{"type":"Feature","properties":{"X":-89.3529800534,"Y":43.1206000183,"NAME":"Ale Asylum","URL":"http://aleasylum.com"},"geometry":{"type":"Point","coordinates":[-89.35298005299995,43.12060001800006]}},{"type":"Feature","properties":{"X":-121.899989889,"Y":37.262020159,"NAME":"Ale House Brewing Co","URL":null},"geometry":{"type":"Point","coordinates":[-121.89998988899998,37.26202015900003]}},{"type":"Feature","properties":{"X":-122.227903394,"Y":37.7758139648,"NAME":"Ale Industries","URL":null},"geometry":{"type":"Point","coordinates":[-122.22790339399995,37.775813965000054]}},{"type":"Feature","properties":{"X":-106.3662688,"Y":35.1225936,"NAME":"Ale Republic","URL":null},"geometry":{"type":"Point","coordinates":[-106.36626879999994,35.12259360000007]}},{"type":"Feature","properties":{"X":-122.4387727,"Y":48.2569826647,"NAME":"Ale Spike","URL":null},"geometry":{"type":"Point","coordinates":[-122.43877269999996,48.256982665000066]}},{"type":"Feature","properties":{"X":-87.7429399431,"Y":41.9409537172,"NAME":"Aleman Brewing","URL":null},"geometry":{"type":"Point","coordinates":[-87.74293994299995,41.94095371700007]}},{"type":"Feature","properties":{"X":-78.1654945417,"Y":39.184535713,"NAME":"Alesatian Brewing Co.","URL":null},"geometry":{"type":"Point","coordinates":[-78.16549454199998,39.18453571300006]}},{"type":"Feature","properties":{"X":-117.149394592,"Y":32.8872538957,"NAME":"AleSmith Brewing Co","URL":null},"geometry":{"type":"Point","coordinates":[-117.14939459199996,32.88725389600006]}},{"type":"Feature","properties":{"X":-123.133974403,"Y":44.0488037993,"NAME":"Alesong Brewing and Blending","URL":null},"geometry":{"type":"Point","coordinates":[-123.13397440299997,44.04880379900004]}},{"type":"Feature","properties":{"X":-76.7323322713,"Y":37.3207084561,"NAME":"Alewerks Brewing Company","URL":null},"geometry":{"type":"Point","coordinates":[-76.73233227099996,37.320708456000034]}},{"type":"Feature","properties":{"X":-119.953801778,"Y":39.2474818812,"NAME":"Alibi Ale Works","URL":null},"geometry":{"type":"Point","coordinates":[-119.95380177799996,39.247481881000056]}},{"type":"Feature","properties":{"X":-106.57124,"Y":35.1037900189,"NAME":"Alien Brewpub","URL":null},"geometry":{"type":"Point","coordinates":[-106.57124,35.10379001900003]}},{"type":"Feature","properties":{"X":-117.13680471,"Y":32.8962260511,"NAME":"Align Brewing Co","URL":null},"geometry":{"type":"Point","coordinates":[-117.13680470999998,32.89622605100004]}},{"type":"Feature","properties":{"X":-87.6669762389,"Y":41.8863252048,"NAME":"All Rise Brewing Co","URL":null},"geometry":{"type":"Point","coordinates":[-87.66697623899995,41.88632520500005]}},{"type":"Feature","properties":{"X":-79.52623,"Y":40.31203,"NAME":"All Saints Brewing Co","URL":null},"geometry":{"type":"Point","coordinates":[-79.52623,40.31203]}},{"type":"Feature","properties":{"X":-70.318293893,"Y":43.7028029653,"NAME":"Allagash Brewing Co","URL":null},"geometry":{"type":"Point","coordinates":[-70.31829389299998,43.702802965000046]}},{"type":"Feature","properties":{"X":-117.806294762,"Y":33.859418124,"NAME":"All-American Ale Works","URL":null},"geometry":{"type":"Point","coordinates":[-117.806294762,33.85941812400006]}},{"type":"Feature","properties":{"X":-80.0004670619,"Y":40.4543428021,"NAME":"Allegheny City Brewing","URL":null},"geometry":{"type":"Point","coordinates":[-80.00046706199998,40.45434280200004]}},{"type":"Feature","properties":{"X":-123.191343,"Y":45.2107674677,"NAME":"Allegory Brewing","URL":null},"geometry":{"type":"Point","coordinates":[-123.191343,45.21076746800003]}},{"type":"Feature","properties":{"X":-75.4741246754,"Y":40.601506119,"NAME":"Allentown Brew Works","URL":null},"geometry":{"type":"Point","coordinates":[-75.47412467499998,40.60150611900008]}},{"type":"Feature","properties":{"X":-83.9031109634,"Y":35.9597154668,"NAME":"Alliance Brewing Company","URL":null},"geometry":{"type":"Point","coordinates":[-83.90311096299996,35.959715467000024]}},{"type":"Feature","properties":{"X":-82.3245615,"Y":29.6503005221,"NAME":"Alligator Brewing / Tall Paul's Brewhouse","URL":null},"geometry":{"type":"Point","coordinates":[-82.32456149999996,29.650300522000066]}},{"type":"Feature","properties":{"X":-93.3362207591,"Y":45.1697380424,"NAME":"Alloy Brewing Company","URL":null},"geometry":{"type":"Point","coordinates":[-93.33622075899996,45.16973804200006]}},{"type":"Feature","properties":{"X":-84.5131485562,"Y":38.0436596914,"NAME":"Alltech's Lexington Brewing","URL":null},"geometry":{"type":"Point","coordinates":[-84.51314855599998,38.04365969100007]}},{"type":"Feature","properties":{"X":-93.6666225,"Y":42.0779115228,"NAME":"Alluvial Brewing Company","URL":null},"geometry":{"type":"Point","coordinates":[-93.6666225,42.07791152300007]}},{"type":"Feature","properties":{"X":-84.6596205,"Y":43.3789324701,"NAME":"Alma Brewing Co","URL":null},"geometry":{"type":"Point","coordinates":[-84.6596205,43.37893247000005]}},{"type":"Feature","properties":{"X":-122.299534288,"Y":37.7830556042,"NAME":"Almanac Beer Company","URL":null},"geometry":{"type":"Point","coordinates":[-122.29953428799996,37.783055604000026]}},{"type":"Feature","properties":{"X":-157.856948021,"Y":21.3007829084,"NAME":"Aloha Beer Co","URL":null},"geometry":{"type":"Point","coordinates":[-157.85694802099997,21.30078290800003]}},{"type":"Feature","properties":{"X":-117.878684404,"Y":34.1046088848,"NAME":"Alosta Brewing Co","URL":null},"geometry":{"type":"Point","coordinates":[-117.87868440399996,34.10460888500006]}},{"type":"Feature","properties":{"X":-122.266416079,"Y":37.5204837802,"NAME":"Alpha Acid Brewing Co","URL":null},"geometry":{"type":"Point","coordinates":[-122.26641607899995,37.52048378000006]}},{"type":"Feature","properties":{"X":-90.2625655912,"Y":38.5986946195,"NAME":"Alpha Brewing Co.","URL":null},"geometry":{"type":"Point","coordinates":[-90.26256559099994,38.59869461900007]}},{"type":"Feature","properties":{"X":-73.9790654939,"Y":40.7237358199,"NAME":"Alphabet City Brewing Co","URL":null},"geometry":{"type":"Point","coordinates":[-73.97906549399994,40.72373582000006]}},{"type":"Feature","properties":{"X":-117.177645844,"Y":32.9065622285,"NAME":"Alpine Beer Company","URL":null},"geometry":{"type":"Point","coordinates":[-117.17764584399998,32.90656222800004]}},{"type":"Feature","properties":{"X":-119.3493005,"Y":48.921243,"NAME":"Alpine Brewing Co","URL":null},"geometry":{"type":"Point","coordinates":[-119.3493005,48.921243]}},{"type":"Feature","properties":{"X":-104.974869381,"Y":39.740101127,"NAME":"Alpine Dog Brewing Co","URL":null},"geometry":{"type":"Point","coordinates":[-104.97486938099996,39.74010112700006]}},{"type":"Feature","properties":{"X":-89.3302885405,"Y":43.1239389462,"NAME":"ALT Brew / Greenview Brewing LLC","URL":null},"geometry":{"type":"Point","coordinates":[-89.33028854099996,43.12393894600007]}},{"type":"Feature","properties":{"X":-117.14135786,"Y":32.7021211693,"NAME":"Alta Brewing Company","URL":null},"geometry":{"type":"Point","coordinates":[-117.14135785999997,32.702121169000065]}},{"type":"Feature","properties":{"X":-121.720090416,"Y":37.675677516,"NAME":"Altamont Beer Works","URL":null},"geometry":{"type":"Point","coordinates":[-121.72009041599995,37.675677516000064]}},{"type":"Feature","properties":{"X":-88.040189899,"Y":41.7901734958,"NAME":"Alter Brewing Company","URL":null},"geometry":{"type":"Point","coordinates":[-88.04018989899998,41.79017349600008]}},{"type":"Feature","properties":{"X":-104.987549171,"Y":39.6886491932,"NAME":"Alternation Brewing Company","URL":null},"geometry":{"type":"Point","coordinates":[-104.98754917099996,39.68864919300006]}},{"type":"Feature","properties":{"X":-105.59493,"Y":41.31091,"NAME":"Altitude Chophouse and Brewery","URL":"http://www.altitudechophouse.com"},"geometry":{"type":"Point","coordinates":[-105.59493,41.31091]}},{"type":"Feature","properties":{"X":-97.9464349405,"Y":29.7873624549,"NAME":"Altmeyer and Lewis Brewing Company","URL":null},"geometry":{"type":"Point","coordinates":[-97.94643494099995,29.78736245500005]}},{"type":"Feature","properties":{"X":-72.1132660469,"Y":42.1162086044,"NAME":"Altruist Brewing Company","URL":null},"geometry":{"type":"Point","coordinates":[-72.11326604699997,42.116208604000064]}},{"type":"Feature","properties":{"X":-98.7962227176,"Y":30.2250675868,"NAME":"Altstadt Brewery","URL":null},"geometry":{"type":"Point","coordinates":[-98.79622271799997,30.22506758700007]}},{"type":"Feature","properties":{"X":-121.63096237,"Y":36.6485586844,"NAME":"Alvarado Street Brewery","URL":null},"geometry":{"type":"Point","coordinates":[-121.63096236999996,36.64855868400008]}},{"type":"Feature","properties":{"X":-121.894562177,"Y":36.5992494827,"NAME":"Alvarado Street Brewery &  Grill","URL":null},"geometry":{"type":"Point","coordinates":[-121.89456217699995,36.59924948300005]}},{"type":"Feature","properties":{"X":-72.7552132855,"Y":41.6640238951,"NAME":"Alvarium Beer Company","URL":null},"geometry":{"type":"Point","coordinates":[-72.75521328599996,41.66402389500007]}},{"type":"Feature","properties":{"X":-120.844921876,"Y":38.4818856484,"NAME":"Amador Brewing Company","URL":null},"geometry":{"type":"Point","coordinates":[-120.84492187599994,38.48188564800006]}},{"type":"Feature","properties":{"X":-105.018109274,"Y":39.8123916392,"NAME":"Amalgam Brewing","URL":null},"geometry":{"type":"Point","coordinates":[-105.01810927399998,39.812391639000055]}},{"type":"Feature","properties":{"X":-122.956984753,"Y":45.5341494446,"NAME":"Ambacht Brewing","URL":null},"geometry":{"type":"Point","coordinates":[-122.95698475299997,45.534149445000025]}},{"type":"Feature","properties":{"X":-78.1325599739,"Y":42.7408400511,"NAME":"Amber Lantern Brewing Company","URL":null},"geometry":{"type":"Point","coordinates":[-78.13255997399995,42.74084005100008]}},{"type":"Feature","properties":{"X":-81.462295283,"Y":30.6711196888,"NAME":"Amelia Island Brewing Company","URL":null},"geometry":{"type":"Point","coordinates":[-81.46229528299995,30.67111968900008]}},{"type":"Feature","properties":{"X":-83.0624113517,"Y":42.3275164591,"NAME":"American Badass Beer","URL":null},"geometry":{"type":"Point","coordinates":[-83.06241135199997,42.32751645900004]}},{"type":"Feature","properties":{"X":-85.5378225838,"Y":42.2667875179,"NAME":"American Brewers Inc","URL":null},"geometry":{"type":"Point","coordinates":[-85.53782258399997,42.26678751800006]}},{"type":"Feature","properties":{"X":-122.386160002,"Y":47.8097399794,"NAME":"American Brewing Company","URL":"http://americanbrewing.com"},"geometry":{"type":"Point","coordinates":[-122.38616000199994,47.80973997900003]}},{"type":"Feature","properties":{"X":-83.4327799341,"Y":42.4195899208,"NAME":"American Harvest Brewpub At Schoolcraft College","URL":"http://www.schoolcraft.edu"},"geometry":{"type":"Point","coordinates":[-83.43277993399994,42.41958992100007]}},{"type":"Feature","properties":{"X":-75.8590054463,"Y":41.255024259,"NAME":"American Honor Beer Co","URL":null},"geometry":{"type":"Point","coordinates":[-75.85900544599997,41.25502425900004]}},{"type":"Feature","properties":{"X":-80.3972141417,"Y":27.6376692822,"NAME":"American Icon Brewery","URL":null},"geometry":{"type":"Point","coordinates":[-80.39721414199994,27.637669282000047]}},{"type":"Feature","properties":{"X":-96.0486914222,"Y":36.1370625423,"NAME":"American Solera","URL":null},"geometry":{"type":"Point","coordinates":[-96.04869142199999,36.137062542000024]}},{"type":"Feature","properties":{"X":-94.4793529086,"Y":39.1544050133,"NAME":"Amerisports Brew Pub","URL":null},"geometry":{"type":"Point","coordinates":[-94.47935290899994,39.15440501300003]}},{"type":"Feature","properties":{"X":-72.53283,"Y":42.37348,"NAME":"Amherst Brewing Co / Hangar Pub and Grill","URL":"http://www.amherstbrewing.com"},"geometry":{"type":"Point","coordinates":[-72.53283,42.37348]}},{"type":"Feature","properties":{"X":-77.4072595132,"Y":37.2310116181,"NAME":"Ammo Brewing","URL":null},"geometry":{"type":"Point","coordinates":[-77.40725951299999,37.231011618000025]}},{"type":"Feature","properties":{"X":-71.4534997973,"Y":42.4320637575,"NAME":"Amory Tomb Brewing Co.","URL":null},"geometry":{"type":"Point","coordinates":[-71.45349979699995,42.43206375800003]}},{"type":"Feature","properties":{"X":-117.254039099,"Y":32.7916270113,"NAME":"Amplified Ale Works","URL":null},"geometry":{"type":"Point","coordinates":[-117.25403909899995,32.79162701100006]}},{"type":"Feature","properties":{"X":-117.155502383,"Y":32.8873796767,"NAME":"Amplified Ale Works Miramar Studio","URL":null},"geometry":{"type":"Point","coordinates":[-117.15550238299994,32.88737967700007]}},{"type":"Feature","properties":{"X":-119.2936,"Y":34.2807899228,"NAME":"Anacapa Brewing Co","URL":null},"geometry":{"type":"Point","coordinates":[-119.2936,34.28078992300004]}},{"type":"Feature","properties":{"X":-122.61251,"Y":48.5197,"NAME":"Anacortes Brewery/Rockfish Grill","URL":null},"geometry":{"type":"Point","coordinates":[-122.61251,48.5197]}},{"type":"Feature","properties":{"X":-117.912759498,"Y":33.8324085246,"NAME":"Anaheim Brewery","URL":null},"geometry":{"type":"Point","coordinates":[-117.91275949799996,33.83240852500006]}},{"type":"Feature","properties":{"X":-122.795782841,"Y":45.3711508955,"NAME":"Ancestry Brewery","URL":null},"geometry":{"type":"Point","coordinates":[-122.79578284099995,45.37115089500003]}},{"type":"Feature","properties":{"X":-122.400972356,"Y":37.7635715134,"NAME":"Anchor Brewing Co","URL":null},"geometry":{"type":"Point","coordinates":[-122.40097235599995,37.763571513000045]}},{"type":"Feature","properties":{"X":-149.889221,"Y":61.138473,"NAME":"Anchorage Brewing Co","URL":null},"geometry":{"type":"Point","coordinates":[-149.889221,61.138473]}},{"type":"Feature","properties":{"X":-81.415625382,"Y":29.9115598094,"NAME":"Ancient City Brewing Co.","URL":null},"geometry":{"type":"Point","coordinates":[-81.41562538199997,29.91155980900004]}},{"type":"Feature","properties":{"X":-73.9539767755,"Y":41.0789319731,"NAME":"Andean Brewing","URL":null},"geometry":{"type":"Point","coordinates":[-73.95397677499994,41.07893197300007]}},{"type":"Feature","properties":{"X":-123.390713244,"Y":39.0342678309,"NAME":"Anderson Valley Brewing Co","URL":null},"geometry":{"type":"Point","coordinates":[-123.39071324399998,39.03426783100008]}},{"type":"Feature","properties":{"X":-69.1392052497,"Y":44.3071375248,"NAME":"Andrews Brewing Co","URL":null},"geometry":{"type":"Point","coordinates":[-69.13920524999997,44.30713752500003]}},{"type":"Feature","properties":{"X":-83.8130699811,"Y":35.1989300045,"NAME":"Andrews Brewing Co At Calaboose Cellars","URL":"http://www.calaboosecellars.com"},"geometry":{"type":"Point","coordinates":[-83.81306998099996,35.19893000400003]}},{"type":"Feature","properties":{"X":-118.238059858,"Y":34.046316,"NAME":"Angel City Brewery","URL":null},"geometry":{"type":"Point","coordinates":[-118.23805985799999,34.046316]}},{"type":"Feature","properties":{"X":-82.4594394098,"Y":28.005138,"NAME":"Angry Chair Brewing, LLC.","URL":null},"geometry":{"type":"Point","coordinates":[-82.45943940999996,28.005138]}},{"type":"Feature","properties":{"X":-74.7176423576,"Y":41.0934733153,"NAME":"Angry Erik Brewing","URL":null},"geometry":{"type":"Point","coordinates":[-74.71764235799998,41.09347331500004]}},{"type":"Feature","properties":{"X":-108.507905877,"Y":45.7805643539,"NAME":"Angry Hank's Microbrewery","URL":null},"geometry":{"type":"Point","coordinates":[-108.50790587699998,45.780564354000035]}},{"type":"Feature","properties":{"X":-118.106162757,"Y":34.0095551658,"NAME":"Angry Horse Brewing","URL":null},"geometry":{"type":"Point","coordinates":[-118.10616275699999,34.00955516600004]}},{"type":"Feature","properties":{"X":-93.2428611123,"Y":44.647632,"NAME":"Angry Inch Brewing","URL":null},"geometry":{"type":"Point","coordinates":[-93.24286111199996,44.647632]}},{"type":"Feature","properties":{"X":-106.075909114,"Y":39.6322855362,"NAME":"Angry James Brewing Co","URL":null},"geometry":{"type":"Point","coordinates":[-106.07590911399996,39.63228553600004]}},{"type":"Feature","properties":{"X":-91.4890526571,"Y":46.0104535629,"NAME":"Angry Minnow, The","URL":null},"geometry":{"type":"Point","coordinates":[-91.48905265699995,46.010453563000056]}},{"type":"Feature","properties":{"X":-97.5244501676,"Y":35.4642265029,"NAME":"Angry Scotsman Brewing","URL":null},"geometry":{"type":"Point","coordinates":[-97.52445016799999,35.46422650300008]}},{"type":"Feature","properties":{"X":-80.8489399561,"Y":36.2446499778,"NAME":"Angry Troll Brewing / 222 Public House","URL":"http://www.222publichouse.com/"},"geometry":{"type":"Point","coordinates":[-80.84893995599998,36.24464997800004]}},{"type":"Feature","properties":{"X":-90.21093,"Y":38.59662,"NAME":"Anheuser-Busch InBev","URL":null},"geometry":{"type":"Point","coordinates":[-90.21093,38.59662]}},{"type":"Feature","properties":{"X":-76.3090700796,"Y":43.1656900221,"NAME":"Anheuser-Busch Inc – Baldwinsville","URL":"http://www.anheuserbusch.com"},"geometry":{"type":"Point","coordinates":[-76.30907007999997,43.165690022000035]}},{"type":"Feature","properties":{"X":-84.7872973099,"Y":34.2539471008,"NAME":"Anheuser-Busch Inc – Cartersville","URL":null},"geometry":{"type":"Point","coordinates":[-84.78729730999999,34.25394710100005]}},{"type":"Feature","properties":{"X":-82.9913300733,"Y":40.1022000573,"NAME":"Anheuser-Busch Inc – Columbus","URL":null},"geometry":{"type":"Point","coordinates":[-82.99133007299997,40.10220005700006]}},{"type":"Feature","properties":{"X":-122.092839947,"Y":38.2386899432,"NAME":"Anheuser-Busch Inc – Fairfield","URL":null},"geometry":{"type":"Point","coordinates":[-122.09283994699996,38.238689943000054]}},{"type":"Feature","properties":{"X":-105.001910065,"Y":40.6201900255,"NAME":"Anheuser-Busch Inc - Fort Collins","URL":null},"geometry":{"type":"Point","coordinates":[-105.00191006499995,40.620190026000046]}},{"type":"Feature","properties":{"X":-95.2727299986,"Y":29.7745099527,"NAME":"Anheuser-Busch Inc – Houston","URL":null},"geometry":{"type":"Point","coordinates":[-95.27272999899998,29.774509953000063]}},{"type":"Feature","properties":{"X":-81.6480100766,"Y":30.4302200113,"NAME":"Anheuser-Busch Inc – Jacksonville","URL":null},"geometry":{"type":"Point","coordinates":[-81.64801007699998,30.430220011000074]}},{"type":"Feature","properties":{"X":-118.480439942,"Y":34.2212999554,"NAME":"Anheuser-Busch Inc - Los Angeles","URL":"http://www.anheuserbusch.com"},"geometry":{"type":"Point","coordinates":[-118.48043994199998,34.22129995500006]}},{"type":"Feature","properties":{"X":-71.4883,"Y":42.82209,"NAME":"Anheuser-Busch Inc – Merrimack","URL":null},"geometry":{"type":"Point","coordinates":[-71.4883,42.82209]}},{"type":"Feature","properties":{"X":-74.1911,"Y":40.69161,"NAME":"Anheuser-Busch Inc – Newark","URL":null},"geometry":{"type":"Point","coordinates":[-74.1911,40.69161]}},{"type":"Feature","properties":{"X":-76.6521100218,"Y":37.2404599753,"NAME":"Anheuser-Busch Inc – Williamsburg","URL":"http://www.anheuserbusch.com"},"geometry":{"type":"Point","coordinates":[-76.65211002199999,37.24045997500008]}},{"type":"Feature","properties":{"X":-107.877059667,"Y":37.2800572076,"NAME":"Animas Brewing Co","URL":null},"geometry":{"type":"Point","coordinates":[-107.87705966699997,37.28005720800007]}},{"type":"Feature","properties":{"X":-97.5277795655,"Y":35.4610001218,"NAME":"Anthem Brewing Co","URL":null},"geometry":{"type":"Point","coordinates":[-97.52777956499995,35.46100012200003]}},{"type":"Feature","properties":{"X":-77.7611253949,"Y":39.6407971082,"NAME":"Antietam Brewery,LLC","URL":null},"geometry":{"type":"Point","coordinates":[-77.76112539499997,39.64079710800007]}},{"type":"Feature","properties":{"X":-94.9676278485,"Y":32.996073736,"NAME":"Anvil Brewing","URL":null},"geometry":{"type":"Point","coordinates":[-94.96762784799995,32.99607373600003]}},{"type":"Feature","properties":{"X":-79.2876082085,"Y":37.3624633377,"NAME":"Apocalypse Ale Works","URL":null},"geometry":{"type":"Point","coordinates":[-79.28760820799994,37.362463338000055]}},{"type":"Feature","properties":{"X":-85.720755647,"Y":38.2566466106,"NAME":"Apocalypse Brew Works","URL":null},"geometry":{"type":"Point","coordinates":[-85.72075564699998,38.256646611000065]}},{"type":"Feature","properties":{"X":-75.4531399561,"Y":40.18577993,"NAME":"Appalachian Brewing Co - Collegeville","URL":"http://abcbrew.com/"},"geometry":{"type":"Point","coordinates":[-75.45313995599997,40.18577993000008]}},{"type":"Feature","properties":{"X":-77.1921903529,"Y":39.8426609445,"NAME":"Appalachian Brewing Co - Gettysburg Gateway","URL":null},"geometry":{"type":"Point","coordinates":[-77.19219035299994,39.842660944000045]}},{"type":"Feature","properties":{"X":-76.8750600594,"Y":40.2658699634,"NAME":"Appalachian Brewing Co - Harrisburg","URL":null},"geometry":{"type":"Point","coordinates":[-76.87506005899996,40.26586996300006]}},{"type":"Feature","properties":{"X":-76.3012554711,"Y":40.158047998,"NAME":"Appalachian Brewing Co - Lititz","URL":null},"geometry":{"type":"Point","coordinates":[-76.30125547099993,40.15804799800003]}},{"type":"Feature","properties":{"X":-77.0166025329,"Y":40.2465464688,"NAME":"Appalachian Brewing Co - Mechanicsburg","URL":null},"geometry":{"type":"Point","coordinates":[-77.01660253299997,40.246546469000066]}},{"type":"Feature","properties":{"X":-81.6685734565,"Y":36.2031849101,"NAME":"Appalachian Mountain Brewery - Boone","URL":null},"geometry":{"type":"Point","coordinates":[-81.66857345699998,36.20318491000006]}},{"type":"Feature","properties":{"X":-70.8041608743,"Y":43.0875650089,"NAME":"Appalachian Mountain Brewery - Portsmouth","URL":null},"geometry":{"type":"Point","coordinates":[-70.80416087399993,43.08756500900006]}},{"type":"Feature","properties":{"X":-94.1373196137,"Y":36.1292634622,"NAME":"Apple Blossom Brewing Co","URL":null},"geometry":{"type":"Point","coordinates":[-94.13731961399998,36.12926346200004]}},{"type":"Feature","properties":{"X":-88.4140511647,"Y":44.2617975284,"NAME":"Appleton Beer Factory","URL":null},"geometry":{"type":"Point","coordinates":[-88.41405116499999,44.261797528000045]}},{"type":"Feature","properties":{"X":-97.9398826269,"Y":29.8812677849,"NAME":"Aquabrew","URL":null},"geometry":{"type":"Point","coordinates":[-97.93988262699997,29.881267785000034]}},{"type":"Feature","properties":{"X":-81.5179875309,"Y":41.069052,"NAME":"Aqueduct Brewing","URL":null},"geometry":{"type":"Point","coordinates":[-81.51798753099996,41.069052]}},{"type":"Feature","properties":{"X":-83.7478138411,"Y":42.2804185579,"NAME":"Arbor Brewing Co","URL":null},"geometry":{"type":"Point","coordinates":[-83.74781384099998,42.280418558000065]}},{"type":"Feature","properties":{"X":-83.6101948598,"Y":42.2502574191,"NAME":"Arbor Brewing Co. Microbrewery","URL":null},"geometry":{"type":"Point","coordinates":[-83.61019485999998,42.250257419000036]}},{"type":"Feature","properties":{"X":-85.5736715226,"Y":42.2948019481,"NAME":"Arcadia Brewing Co","URL":null},"geometry":{"type":"Point","coordinates":[-85.57367152299997,42.29480194800004]}},{"type":"Feature","properties":{"X":-93.75431,"Y":39.00095,"NAME":"Arcadian Moon","URL":null},"geometry":{"type":"Point","coordinates":[-93.75431,39.00095]}},{"type":"Feature","properties":{"X":-117.272414828,"Y":33.1394723262,"NAME":"Arcana Brewing Company","URL":null},"geometry":{"type":"Point","coordinates":[-117.27241482799997,33.13947232600003]}},{"type":"Feature","properties":{"X":-124.415433841,"Y":42.3888574505,"NAME":"Arch Rock Brewing Co","URL":null},"geometry":{"type":"Point","coordinates":[-124.41543384099998,42.388857450000046]}},{"type":"Feature","properties":{"X":-117.82316277,"Y":33.7420254828,"NAME":"Archaic Craft Brewery At Centro","URL":null},"geometry":{"type":"Point","coordinates":[-117.82316276999995,33.74202548300008]}},{"type":"Feature","properties":{"X":-84.4092685704,"Y":33.662562128,"NAME":"Arches Brewing","URL":null},"geometry":{"type":"Point","coordinates":[-84.40926856999994,33.66256212800005]}},{"type":"Feature","properties":{"X":-82.574706021,"Y":35.5782252362,"NAME":"Archetype Brewing","URL":null},"geometry":{"type":"Point","coordinates":[-82.57470602099994,35.57822523600004]}},{"type":"Feature","properties":{"X":-86.2593972305,"Y":42.1912333458,"NAME":"Arclight Brewing Company","URL":null},"geometry":{"type":"Point","coordinates":[-86.25939723099998,42.19123334600005]}},{"type":"Feature","properties":{"X":-72.3722974999,"Y":42.2918253989,"NAME":"Arcpoint Brewing Co","URL":null},"geometry":{"type":"Point","coordinates":[-72.37229749999995,42.29182539900006]}},{"type":"Feature","properties":{"X":-77.4720546922,"Y":37.568227861,"NAME":"Ardent Craft Ales","URL":null},"geometry":{"type":"Point","coordinates":[-77.47205469199997,37.568227861000025]}},{"type":"Feature","properties":{"X":-75.6837399567,"Y":39.7077768202,"NAME":"Argilla Brewing Co @ Pietro's Pizza","URL":null},"geometry":{"type":"Point","coordinates":[-75.68373995699994,39.70777682000005]}},{"type":"Feature","properties":{"X":-87.6118264498,"Y":41.6885265679,"NAME":"Argus Brewery","URL":null},"geometry":{"type":"Point","coordinates":[-87.61182644999997,41.68852656800004]}},{"type":"Feature","properties":{"X":-73.4969899667,"Y":43.0875800111,"NAME":"Argyle Brewing Company","URL":"http://argylebrewing.com/"},"geometry":{"type":"Point","coordinates":[-73.49698996699993,43.08758001100006]}},{"type":"Feature","properties":{"X":-111.841827072,"Y":33.3629894702,"NAME":"Arizona Wilderness Brewing","URL":null},"geometry":{"type":"Point","coordinates":[-111.84182707199994,33.36298947000006]}},{"type":"Feature","properties":{"X":-82.7613139833,"Y":27.9166704522,"NAME":"Arkane Aleworks","URL":null},"geometry":{"type":"Point","coordinates":[-82.76131398299998,27.916670452000062]}},{"type":"Feature","properties":{"X":-149.106141,"Y":61.5818824701,"NAME":"Arkose Brewery","URL":null},"geometry":{"type":"Point","coordinates":[-149.106141,61.58188247000004]}},{"type":"Feature","properties":{"X":-122.681943069,"Y":45.5176950231,"NAME":"Arlington Club","URL":null},"geometry":{"type":"Point","coordinates":[-122.68194306899994,45.517695023000044]}},{"type":"Feature","properties":{"X":-72.8738905895,"Y":41.2897832631,"NAME":"Armada Brewing","URL":null},"geometry":{"type":"Point","coordinates":[-72.87389058999997,41.28978326300006]}},{"type":"Feature","properties":{"X":-97.1283700764,"Y":33.2128065443,"NAME":"Armadillo Ale Works","URL":null},"geometry":{"type":"Point","coordinates":[-97.12837007599995,33.212806544000046]}},{"type":"Feature","properties":{"X":-122.346487641,"Y":37.919387779,"NAME":"Armistice Brewing Company","URL":null},"geometry":{"type":"Point","coordinates":[-122.34648764099995,37.91938777900003]}},{"type":"Feature","properties":{"X":-122.412986648,"Y":37.6557679403,"NAME":"Armstrong Brewing Co","URL":null},"geometry":{"type":"Point","coordinates":[-122.41298664799996,37.65576794000003]}},{"type":"Feature","properties":{"X":-87.7948508632,"Y":41.9002909942,"NAME":"Around the Bend Beer Co.","URL":null},"geometry":{"type":"Point","coordinates":[-87.79485086299997,41.900290994000045]}},{"type":"Feature","properties":{"X":-117.877085592,"Y":34.1054170139,"NAME":"Arrow Lodge Brewing","URL":null},"geometry":{"type":"Point","coordinates":[-117.87708559199996,34.10541701400007]}},{"type":"Feature","properties":{"X":-87.9571466507,"Y":41.4819636078,"NAME":"Arrowhead Ales Brewing Company","URL":null},"geometry":{"type":"Point","coordinates":[-87.95714665099996,41.48196360800006]}},{"type":"Feature","properties":{"X":-74.2492168962,"Y":41.8063542018,"NAME":"Arrowood Farms","URL":null},"geometry":{"type":"Point","coordinates":[-74.24921689599995,41.80635420200008]}},{"type":"Feature","properties":{"X":-117.606143415,"Y":33.4495243882,"NAME":"Artifex Brewing Company","URL":null},"geometry":{"type":"Point","coordinates":[-117.60614341499996,33.44952438800004]}},{"type":"Feature","properties":{"X":-73.8148052856,"Y":43.0593497872,"NAME":"Artisanal Brew Works","URL":null},"geometry":{"type":"Point","coordinates":[-73.81480528599997,43.05934978700003]}},{"type":"Feature","properties":{"X":-74.18299,"Y":39.97722,"NAME":"Artisan's Brewery &  Italian Grill","URL":null},"geometry":{"type":"Point","coordinates":[-74.18299,39.97722]}},{"type":"Feature","properties":{"X":-118.235137315,"Y":34.044748189,"NAME":"Arts District Brewing Company","URL":null},"geometry":{"type":"Point","coordinates":[-118.23513731499997,34.044748189000074]}},{"type":"Feature","properties":{"X":-79.8047099905,"Y":42.2251899926,"NAME":"Arundel Cellars &  Brewing Co","URL":"http://www.arundelcellars.com"},"geometry":{"type":"Point","coordinates":[-79.80470998999994,42.22518999300007]}},{"type":"Feature","properties":{"X":-85.7719727973,"Y":42.9089577683,"NAME":"Arvon Brewing Co.","URL":null},"geometry":{"type":"Point","coordinates":[-85.77197279699999,42.90895776800005]}},{"type":"Feature","properties":{"X":-74.0122438539,"Y":40.2195590168,"NAME":"Asbury Park Brewery","URL":null},"geometry":{"type":"Point","coordinates":[-74.01224385399996,40.21955901700005]}},{"type":"Feature","properties":{"X":-83.4611931454,"Y":42.4776776822,"NAME":"Ascension Brewing Company","URL":null},"geometry":{"type":"Point","coordinates":[-83.46119314499998,42.477677682000035]}},{"type":"Feature","properties":{"X":-87.0329311564,"Y":35.6176373691,"NAME":"Asgard Brewing Company","URL":null},"geometry":{"type":"Point","coordinates":[-87.03293115599996,35.61763736900008]}},{"type":"Feature","properties":{"X":-95.8162440227,"Y":46.0930318729,"NAME":"Ashby Brewing Company","URL":null},"geometry":{"type":"Point","coordinates":[-95.81624402299997,46.09303187300003]}},{"type":"Feature","properties":{"X":-105.205060266,"Y":40.060163678,"NAME":"Asher Brewing Co","URL":null},"geometry":{"type":"Point","coordinates":[-105.20506026599998,40.06016367800004]}},{"type":"Feature","properties":{"X":-82.5550736631,"Y":35.5917074563,"NAME":"Asheville Brewing Co","URL":null},"geometry":{"type":"Point","coordinates":[-82.55507366299997,35.59170745600005]}},{"type":"Feature","properties":{"X":-122.932763067,"Y":46.1366342472,"NAME":"Ashtown Brewing Co","URL":null},"geometry":{"type":"Point","coordinates":[-122.93276306699994,46.136634247000075]}},{"type":"Feature","properties":{"X":-72.2398077313,"Y":42.7597115338,"NAME":"Ashuelot Brewing Company","URL":null},"geometry":{"type":"Point","coordinates":[-72.23980773099998,42.759711534000076]}},{"type":"Feature","properties":{"X":-122.474829959,"Y":48.7485399961,"NAME":"Aslan Brewing Company","URL":null},"geometry":{"type":"Point","coordinates":[-122.47482995899998,48.748539996000034]}},{"type":"Feature","properties":{"X":-77.400493737,"Y":38.9792123525,"NAME":"Aslin Beer Company","URL":null},"geometry":{"type":"Point","coordinates":[-77.40049373699998,38.97921235300004]}},{"type":"Feature","properties":{"X":-106.859325601,"Y":39.2196807866,"NAME":"Aspen Brewing Company","URL":null},"geometry":{"type":"Point","coordinates":[-106.85932560099997,39.21968078700007]}},{"type":"Feature","properties":{"X":-73.2357471496,"Y":41.1546432487,"NAME":"Aspetuck Brew Labs","URL":null},"geometry":{"type":"Point","coordinates":[-73.23574714999995,41.15464324900006]}},{"type":"Feature","properties":{"X":-80.8560536364,"Y":35.4580274524,"NAME":"Ass Clown Brewing Co","URL":null},"geometry":{"type":"Point","coordinates":[-80.85605363599996,35.45802745200007]}},{"type":"Feature","properties":{"X":-75.4229150396,"Y":39.8559322764,"NAME":"Aston Abbey Brewing Co","URL":null},"geometry":{"type":"Point","coordinates":[-75.42291503999996,39.85593227600003]}},{"type":"Feature","properties":{"X":-123.830320165,"Y":46.1897364749,"NAME":"Astoria Brewing Company","URL":null},"geometry":{"type":"Point","coordinates":[-123.83032016499999,46.189736475000075]}},{"type":"Feature","properties":{"X":-117.860563569,"Y":33.8502750735,"NAME":"Asylum Brewing Company","URL":null},"geometry":{"type":"Point","coordinates":[-117.86056356899996,33.850275073000034]}},{"type":"Feature","properties":{"X":-122.21433208,"Y":47.981133,"NAME":"At Large Brewing","URL":null},"geometry":{"type":"Point","coordinates":[-122.21433207999996,47.981133]}},{"type":"Feature","properties":{"X":-74.8994812294,"Y":39.7707755077,"NAME":"Atco Brewing LLC","URL":null},"geometry":{"type":"Point","coordinates":[-74.89948122899995,39.77077550800004]}},{"type":"Feature","properties":{"X":-95.853753,"Y":32.2054365221,"NAME":"Athens Brewing Co","URL":null},"geometry":{"type":"Point","coordinates":[-95.853753,32.20543652200007]}},{"type":"Feature","properties":{"X":-81.4077717548,"Y":30.32460347,"NAME":"Atlantic Beach Brewing Company","URL":null},"geometry":{"type":"Point","coordinates":[-81.40777175499994,30.324603470000056]}},{"type":"Feature","properties":{"X":-68.3341333887,"Y":44.3997616384,"NAME":"Atlantic Brewing Co","URL":null},"geometry":{"type":"Point","coordinates":[-68.33413338899999,44.39976163800003]}},{"type":"Feature","properties":{"X":-68.2069799969,"Y":44.3893986161,"NAME":"Atlantic Brewing Co / Bar Harbor Brewing","URL":null},"geometry":{"type":"Point","coordinates":[-68.20697999699996,44.38939861600005]}},{"type":"Feature","properties":{"X":-76.981419,"Y":38.914839,"NAME":"Atlas Brew Works","URL":null},"geometry":{"type":"Point","coordinates":[-76.981419,38.914839]}},{"type":"Feature","properties":{"X":-105.053809972,"Y":40.0489005356,"NAME":"Atom Brewing Company","URL":null},"geometry":{"type":"Point","coordinates":[-105.05380997199995,40.048900536000076]}},{"type":"Feature","properties":{"X":-119.2773,"Y":46.2748199883,"NAME":"Atomic Ale Brewpub and Eatery","URL":"http://atomicalebrewpub.com"},"geometry":{"type":"Point","coordinates":[-119.2773,46.27481998800005]}},{"type":"Feature","properties":{"X":-77.403390649,"Y":39.4122362481,"NAME":"Attaboy Beer","URL":null},"geometry":{"type":"Point","coordinates":[-77.40339064899996,39.412236248000056]}},{"type":"Feature","properties":{"X":-83.0184674392,"Y":42.3375240413,"NAME":"Atwater Brewing Co","URL":null},"geometry":{"type":"Point","coordinates":[-83.01846743899995,42.33752404100005]}},{"type":"Feature","properties":{"X":-85.6728020173,"Y":42.9704005154,"NAME":"Atwater Grand Rapids","URL":null},"geometry":{"type":"Point","coordinates":[-85.67280201699998,42.97040051500005]}},{"type":"Feature","properties":{"X":-82.9397314302,"Y":42.3813742081,"NAME":"Atwater In the Park Biergarten and Tap House","URL":null},"geometry":{"type":"Point","coordinates":[-82.93973142999994,42.38137420800007]}},{"type":"Feature","properties":{"X":-122.697651442,"Y":48.9789654766,"NAME":"Atwood Ales","URL":null},"geometry":{"type":"Point","coordinates":[-122.697651442,48.97896547700003]}},{"type":"Feature","properties":{"X":-121.078350055,"Y":38.8955399522,"NAME":"Auburn Alehouse","URL":"http://auburnalehouse.com"},"geometry":{"type":"Point","coordinates":[-121.07835005499999,38.895539952000036]}},{"type":"Feature","properties":{"X":-94.4476,"Y":44.29065,"NAME":"August Schell Brewing Co","URL":"http://schellsbrewery.com/"},"geometry":{"type":"Point","coordinates":[-94.4476,44.29065]}},{"type":"Feature","properties":{"X":-91.0116097548,"Y":38.5600150522,"NAME":"Augusta Brewing Co","URL":null},"geometry":{"type":"Point","coordinates":[-91.01160975499994,38.56001505200004]}},{"type":"Feature","properties":{"X":-97.4443777644,"Y":37.6958875809,"NAME":"Augustino Brewing","URL":null},"geometry":{"type":"Point","coordinates":[-97.44437776399997,37.69588758100008]}},{"type":"Feature","properties":{"X":-80.1034975383,"Y":40.5120419076,"NAME":"Aurochs Brewing Company","URL":null},"geometry":{"type":"Point","coordinates":[-80.10349753799994,40.51204190800007]}},{"type":"Feature","properties":{"X":-76.6815622483,"Y":42.7099764046,"NAME":"Aurora Ale &  Lager","URL":null},"geometry":{"type":"Point","coordinates":[-76.68156224799998,42.70997640500008]}},{"type":"Feature","properties":{"X":-73.4474070519,"Y":44.5035305692,"NAME":"Ausable Brewing Co","URL":null},"geometry":{"type":"Point","coordinates":[-73.44740705199996,44.50353056900008]}},{"type":"Feature","properties":{"X":-97.7293660912,"Y":30.3798237594,"NAME":"Austin Beerworks","URL":null},"geometry":{"type":"Point","coordinates":[-97.72936609099997,30.379823759000033]}},{"type":"Feature","properties":{"X":-83.4371523555,"Y":45.0742363694,"NAME":"Austin Brothers' Beer Company","URL":null},"geometry":{"type":"Point","coordinates":[-83.43715235499997,45.07423636900006]}},{"type":"Feature","properties":{"X":-70.319831316,"Y":43.7032032461,"NAME":"Austin Street Brewery","URL":null},"geometry":{"type":"Point","coordinates":[-70.31983131599998,43.703203246000044]}},{"type":"Feature","properties":{"X":-117.12015,"Y":32.7633800078,"NAME":"Automatic Brewing Co. / Blind Lady Alehouse","URL":null},"geometry":{"type":"Point","coordinates":[-117.12015,32.76338000800007]}},{"type":"Feature","properties":{"X":-107.6646127,"Y":37.8100273537,"NAME":"Avalanche Brewing Co","URL":null},"geometry":{"type":"Point","coordinates":[-107.66461269999996,37.810027354000056]}},{"type":"Feature","properties":{"X":-105.203754334,"Y":40.0631733535,"NAME":"Avery Brewing Co","URL":null},"geometry":{"type":"Point","coordinates":[-105.20375433399994,40.06317335400007]}},{"type":"Feature","properties":{"X":-78.8078050405,"Y":35.6197425196,"NAME":"Aviator Brewing Company","URL":null},"geometry":{"type":"Point","coordinates":[-78.80780503999995,35.619742520000045]}},{"type":"Feature","properties":{"X":-86.7743560656,"Y":33.5244264821,"NAME":"Avondale Brewing Co","URL":null},"geometry":{"type":"Point","coordinates":[-86.77435606599994,33.524426482000024]}},{"type":"Feature","properties":{"X":-83.142548987,"Y":42.450576957,"NAME":"Axle Brewing Company","URL":null},"geometry":{"type":"Point","coordinates":[-83.14254898699994,42.45057695700007]}},{"type":"Feature","properties":{"X":-83.142548987,"Y":42.450576957,"NAME":"Axle Brewing Company","URL":null},"geometry":{"type":"Point","coordinates":[-83.14254898699994,42.45057695700007]}},{"type":"Feature","properties":{"X":-117.228936068,"Y":33.1512177917,"NAME":"Aztec Brewing Company","URL":null},"geometry":{"type":"Point","coordinates":[-117.22893606799994,33.15121779200007]}},{"type":"Feature","properties":{"X":-97.3569111833,"Y":27.7007575727,"NAME":"B and J's Handcrafted Texas Ales","URL":null},"geometry":{"type":"Point","coordinates":[-97.35691118299997,27.700757573000033]}},{"type":"Feature","properties":{"X":-77.8229063676,"Y":39.1203642951,"NAME":"B Chord Brewing Company","URL":null},"geometry":{"type":"Point","coordinates":[-77.82290636799996,39.12036429500006]}},{"type":"Feature","properties":{"X":-76.6609739146,"Y":39.4848390413,"NAME":"B.C. Brewery","URL":null},"geometry":{"type":"Point","coordinates":[-76.66097391499994,39.48483904100004]}},{"type":"Feature","properties":{"X":-85.6731099883,"Y":42.963709945,"NAME":"B.O.B's Brewery","URL":"http://thebobsbrewery.thebob.com/"},"geometry":{"type":"Point","coordinates":[-85.67310998799996,42.96370994500006]}},{"type":"Feature","properties":{"X":-95.5513396726,"Y":30.3407008637,"NAME":"B-52 Brewing","URL":null},"geometry":{"type":"Point","coordinates":[-95.55133967299997,30.34070086400004]}},{"type":"Feature","properties":{"X":-73.9832789474,"Y":40.7502708049,"NAME":"B9 Beverages Inc","URL":null},"geometry":{"type":"Point","coordinates":[-73.98327894699997,40.75027080500007]}},{"type":"Feature","properties":{"X":-95.9513193546,"Y":29.7729989162,"NAME":"Baa Baa Brewhouse","URL":null},"geometry":{"type":"Point","coordinates":[-95.95131935499995,29.772998916000063]}},{"type":"Feature","properties":{"X":-116.412209959,"Y":33.7412999489,"NAME":"Babe's Bar-B-Que and Brewhouse","URL":null},"geometry":{"type":"Point","coordinates":[-116.41220995899994,33.74129994900005]}},{"type":"Feature","properties":{"X":-76.3004315014,"Y":42.4996894774,"NAME":"Bacchus Brewing","URL":null},"geometry":{"type":"Point","coordinates":[-76.30043150099993,42.49968947700006]}},{"type":"Feature","properties":{"X":-85.8345096811,"Y":41.5845720525,"NAME":"Back Alley Brewing Co","URL":null},"geometry":{"type":"Point","coordinates":[-85.83450968099999,41.584572052000055]}},{"type":"Feature","properties":{"X":-75.9797054183,"Y":36.8376261445,"NAME":"Back Bay Brewing Company","URL":null},"geometry":{"type":"Point","coordinates":[-75.97970541799998,36.83762614500006]}},{"type":"Feature","properties":{"X":-93.643767219,"Y":44.9366777105,"NAME":"Back Channel Brewing","URL":null},"geometry":{"type":"Point","coordinates":[-93.64376721899998,44.936677710000026]}},{"type":"Feature","properties":{"X":-72.7049551077,"Y":41.8547076555,"NAME":"Back East Brewing","URL":null},"geometry":{"type":"Point","coordinates":[-72.70495510799998,41.85470765500003]}},{"type":"Feature","properties":{"X":-86.0056490768,"Y":34.0154941148,"NAME":"Back Forty Beer Co","URL":null},"geometry":{"type":"Point","coordinates":[-86.00564907699999,34.015494115000024]}},{"type":"Feature","properties":{"X":-122.685887033,"Y":45.5258330135,"NAME":"Back Pedal Brewing Company","URL":null},"geometry":{"type":"Point","coordinates":[-122.68588703299997,45.52583301400006]}},{"type":"Feature","properties":{"X":-95.2627632354,"Y":30.064555446,"NAME":"Back Pew Brewing","URL":null},"geometry":{"type":"Point","coordinates":[-95.26276323499997,30.064555446000043]}},{"type":"Feature","properties":{"X":-86.7265667428,"Y":41.6121043552,"NAME":"Back Road Brewery","URL":null},"geometry":{"type":"Point","coordinates":[-86.72656674299998,41.61210435500004]}},{"type":"Feature","properties":{"X":-117.896271069,"Y":33.8006088754,"NAME":"Back Street Brewery &  Tasting Room","URL":null},"geometry":{"type":"Point","coordinates":[-117.89627106899997,33.80060887500008]}},{"type":"Feature","properties":{"X":-91.5600152645,"Y":41.682447199,"NAME":"Backpocket Brewing Co","URL":null},"geometry":{"type":"Point","coordinates":[-91.56001526399996,41.68244719900008]}},{"type":"Feature","properties":{"X":-93.4866966622,"Y":41.499009199,"NAME":"BackRoad Brewery","URL":null},"geometry":{"type":"Point","coordinates":[-93.48669666199999,41.49900919900006]}},{"type":"Feature","properties":{"X":-78.2194726276,"Y":38.9958626802,"NAME":"Backroom Brewery","URL":null},"geometry":{"type":"Point","coordinates":[-78.21947262799995,38.99586268000007]}},{"type":"Feature","properties":{"X":-75.0802190429,"Y":38.3401859295,"NAME":"Backshore Brewing Co.","URL":null},"geometry":{"type":"Point","coordinates":[-75.08021904299994,38.340185930000075]}},{"type":"Feature","properties":{"X":-123.337709717,"Y":43.2144404932,"NAME":"Backside Brewing Co","URL":null},"geometry":{"type":"Point","coordinates":[-123.33770971699994,43.21444049300004]}},{"type":"Feature","properties":{"X":-114.196473,"Y":48.3707054788,"NAME":"Backslope Brewing","URL":null},"geometry":{"type":"Point","coordinates":[-114.196473,48.37070547900004]}},{"type":"Feature","properties":{"X":-86.8999092258,"Y":40.0426274599,"NAME":"Backstep Brewing Company","URL":null},"geometry":{"type":"Point","coordinates":[-86.89990922599998,40.04262746000006]}},{"type":"Feature","properties":{"X":-96.7254740604,"Y":40.7919094864,"NAME":"Backswing Brewing Co.","URL":null},"geometry":{"type":"Point","coordinates":[-96.72547405999995,40.791909486000065]}},{"type":"Feature","properties":{"X":-74.207086772,"Y":39.8245322298,"NAME":"Backward Flag Brewing","URL":null},"geometry":{"type":"Point","coordinates":[-74.20708677199997,39.824532230000045]}},{"type":"Feature","properties":{"X":-121.820479992,"Y":45.7287600255,"NAME":"Backwoods Brewing Company","URL":null},"geometry":{"type":"Point","coordinates":[-121.82047999199995,45.72876002600003]}},{"type":"Feature","properties":{"X":-121.880290536,"Y":45.6931459284,"NAME":"Backwoods Brewing Company - Production Only","URL":null},"geometry":{"type":"Point","coordinates":[-121.88029053599996,45.693145928000035]}},{"type":"Feature","properties":{"X":-82.0717234949,"Y":28.8942687651,"NAME":"Backyard Barn Winery and Microbrewery","URL":null},"geometry":{"type":"Point","coordinates":[-82.07172349499996,28.89426876500005]}},{"type":"Feature","properties":{"X":-71.4130994971,"Y":42.9357959692,"NAME":"Backyard Brewery","URL":null},"geometry":{"type":"Point","coordinates":[-71.41309949699996,42.935795969000026]}},{"type":"Feature","properties":{"X":-115.019766018,"Y":36.052758,"NAME":"Bad Beat Brewing","URL":null},"geometry":{"type":"Point","coordinates":[-115.01976601799998,36.052758]}},{"type":"Feature","properties":{"X":-84.4432093112,"Y":42.578613,"NAME":"BAD Brewing Co","URL":null},"geometry":{"type":"Point","coordinates":[-84.44320931099998,42.578613]}},{"type":"Feature","properties":{"X":-122.653342748,"Y":47.570769,"NAME":"Bad Bulldogs Brewery","URL":null},"geometry":{"type":"Point","coordinates":[-122.65334274799994,47.570769]}},{"type":"Feature","properties":{"X":-94.3172339717,"Y":45.5648664316,"NAME":"Bad Habit Brewing Company","URL":null},"geometry":{"type":"Point","coordinates":[-94.31723397199994,45.56486643200003]}},{"type":"Feature","properties":{"X":-122.366015705,"Y":47.6603504746,"NAME":"Bad Jimmy's Brewing Co","URL":null},"geometry":{"type":"Point","coordinates":[-122.366015705,47.66035047500003]}},{"type":"Feature","properties":{"X":-70.8825603802,"Y":43.2300834488,"NAME":"Bad Lab Beer Co.","URL":null},"geometry":{"type":"Point","coordinates":[-70.88256037999997,43.23008344900006]}},{"type":"Feature","properties":{"X":-70.5276308667,"Y":41.3945680435,"NAME":"Bad Martha Farmer's Brewery","URL":null},"geometry":{"type":"Point","coordinates":[-70.52763086699997,41.39456804300005]}},{"type":"Feature","properties":{"X":-81.6357165975,"Y":38.3505429302,"NAME":"Bad Shepherd Beer Company","URL":null},"geometry":{"type":"Point","coordinates":[-81.63571659699994,38.350542930000074]}},{"type":"Feature","properties":{"X":-84.4181963576,"Y":39.1196610097,"NAME":"Bad Tom Smith Brewing","URL":null},"geometry":{"type":"Point","coordinates":[-84.41819635799999,39.11966101000007]}},{"type":"Feature","properties":{"X":-81.7049652845,"Y":41.4861190727,"NAME":"Bad Tom Smith Brewing","URL":null},"geometry":{"type":"Point","coordinates":[-81.70496528399997,41.486119073000054]}},{"type":"Feature","properties":{"X":-111.924416434,"Y":33.4972352515,"NAME":"Bad Water Brewing","URL":null},"geometry":{"type":"Point","coordinates":[-111.92441643399997,33.49723525100006]}},{"type":"Feature","properties":{"X":-93.1099679344,"Y":44.9390341776,"NAME":"Bad Weather Brewing LLC","URL":null},"geometry":{"type":"Point","coordinates":[-93.10996793399994,44.93903417800004]}},{"type":"Feature","properties":{"X":-117.282852277,"Y":47.6697958324,"NAME":"Badass Backyard Brewing","URL":null},"geometry":{"type":"Point","coordinates":[-117.28285227699996,47.669795832000034]}},{"type":"Feature","properties":{"X":-87.7947478815,"Y":41.8966551304,"NAME":"Baderbrau Brewing Co","URL":null},"geometry":{"type":"Point","coordinates":[-87.79474788199997,41.896655130000056]}},{"type":"Feature","properties":{"X":-93.461385449,"Y":44.7930422285,"NAME":"Badger Hill Brewing","URL":null},"geometry":{"type":"Point","coordinates":[-93.46138544899998,44.79304222800005]}},{"type":"Feature","properties":{"X":-120.308982219,"Y":47.4239574071,"NAME":"Badger Mountain Brewing","URL":null},"geometry":{"type":"Point","coordinates":[-120.30898221899997,47.423957407000046]}},{"type":"Feature","properties":{"X":-88.0504100084,"Y":44.4965354807,"NAME":"Badger State Brewing Company","URL":null},"geometry":{"type":"Point","coordinates":[-88.05041000799997,44.49653548100008]}},{"type":"Feature","properties":{"X":-73.0994726219,"Y":41.3260575534,"NAME":"BADSONS Beer Co","URL":null},"geometry":{"type":"Point","coordinates":[-73.09947262199995,41.326057553000055]}},{"type":"Feature","properties":{"X":-77.4908319115,"Y":38.7535052235,"NAME":"BadWolf Brewing Company","URL":null},"geometry":{"type":"Point","coordinates":[-77.49083191099999,38.75350522300005]}},{"type":"Feature","properties":{"X":-77.4507059607,"Y":38.7612780165,"NAME":"BadWolf Brewing Company","URL":null},"geometry":{"type":"Point","coordinates":[-77.45070596099998,38.76127801600006]}},{"type":"Feature","properties":{"X":-104.98746727,"Y":39.721428,"NAME":"Baere Brewing Company","URL":null},"geometry":{"type":"Point","coordinates":[-104.98746726999997,39.721428]}},{"type":"Feature","properties":{"X":-122.654772671,"Y":45.5069966123,"NAME":"Baerlic Brewing Co","URL":null},"geometry":{"type":"Point","coordinates":[-122.65477267099999,45.50699661200008]}},{"type":"Feature","properties":{"X":-82.8893112201,"Y":42.4782265809,"NAME":"Baffin Brewing Co","URL":null},"geometry":{"type":"Point","coordinates":[-82.88931121999997,42.47822658100006]}},{"type":"Feature","properties":{"X":-70.3075288885,"Y":45.0540410717,"NAME":"Bag and Kettle, The","URL":null},"geometry":{"type":"Point","coordinates":[-70.30752888799998,45.054041072000075]}},{"type":"Feature","properties":{"X":-117.37405397,"Y":33.1893387249,"NAME":"Bagby Beer Company","URL":null},"geometry":{"type":"Point","coordinates":[-117.37405396999998,33.18933872500003]}},{"type":"Feature","properties":{"X":-95.4136932799,"Y":29.7255624605,"NAME":"Baileson Brewing Company, LLC","URL":null},"geometry":{"type":"Point","coordinates":[-95.41369327999996,29.72556246000005]}},{"type":"Feature","properties":{"X":-122.525174136,"Y":47.6482499681,"NAME":"Bainbridge Island Brewing","URL":null},"geometry":{"type":"Point","coordinates":[-122.52517413599998,47.64824996800007]}},{"type":"Feature","properties":{"X":-117.8327105,"Y":44.783268,"NAME":"Baker City Brewing Co","URL":null},"geometry":{"type":"Point","coordinates":[-117.83271049999996,44.783268]}},{"type":"Feature","properties":{"X":-95.2230184034,"Y":29.54314241,"NAME":"BAKFISH Brewing Company","URL":null},"geometry":{"type":"Point","coordinates":[-95.22301840299997,29.54314241000003]}},{"type":"Feature","properties":{"X":-93.2107734666,"Y":44.8210716577,"NAME":"Bald Man Brewing Company","URL":null},"geometry":{"type":"Point","coordinates":[-93.21077346699997,44.82107165800005]}},{"type":"Feature","properties":{"X":-78.2766546001,"Y":38.3786542028,"NAME":"Bald Top Brewing Company","URL":null},"geometry":{"type":"Point","coordinates":[-78.27665459999997,38.37865420300005]}},{"type":"Feature","properties":{"X":-120.435436714,"Y":46.5771201629,"NAME":"Bale Breaker Brewing Company","URL":null},"geometry":{"type":"Point","coordinates":[-120.43543671399999,46.577120163000075]}},{"type":"Feature","properties":{"X":-79.3862590987,"Y":36.5848394909,"NAME":"Ballad Brewing","URL":null},"geometry":{"type":"Point","coordinates":[-79.38625909899997,36.584839491000025]}},{"type":"Feature","properties":{"X":-117.195529956,"Y":32.766959985,"NAME":"Ballast Point Brewing Co / Home Brew Mart","URL":"http://ballastpointbrewingandspirits.com"},"geometry":{"type":"Point","coordinates":[-117.19552995599997,32.76695998500003]}},{"type":"Feature","properties":{"X":-117.158809291,"Y":32.8880600255,"NAME":"Ballast Point Brewing Company","URL":null},"geometry":{"type":"Point","coordinates":[-117.15880929099995,32.88806002600006]}},{"type":"Feature","properties":{"X":-79.9131145048,"Y":37.4359384901,"NAME":"Ballast Point Brewing Company","URL":null},"geometry":{"type":"Point","coordinates":[-79.91311450499995,37.43593849000007]}},{"type":"Feature","properties":{"X":-117.110740044,"Y":32.8988399955,"NAME":"Ballast Point Brewing Company - Scripps Ranch","URL":"http://ballastpoint.com"},"geometry":{"type":"Point","coordinates":[-117.11074004399995,32.89883999600005]}},{"type":"Feature","properties":{"X":-83.221899515,"Y":35.3735891101,"NAME":"Balsam Falls Brewing","URL":null},"geometry":{"type":"Point","coordinates":[-83.22189951499996,35.37358911000007]}},{"type":"Feature","properties":{"X":-83.924380041,"Y":35.9665736334,"NAME":"Balter Beerworks","URL":null},"geometry":{"type":"Point","coordinates":[-83.92438004099995,35.96657363300005]}},{"type":"Feature","properties":{"X":-76.573574,"Y":39.401835,"NAME":"Baltimore Washington Beer Works","URL":null},"geometry":{"type":"Point","coordinates":[-76.573574,39.401835]}},{"type":"Feature","properties":{"X":-86.08597,"Y":42.78316,"NAME":"Bam Entertainment Center","URL":null},"geometry":{"type":"Point","coordinates":[-86.08597,42.78316]}},{"type":"Feature","properties":{"X":-87.6746989143,"Y":41.9676115495,"NAME":"Band Of Bohemia","URL":null},"geometry":{"type":"Point","coordinates":[-87.67469891399998,41.96761155000007]}},{"type":"Feature","properties":{"X":-87.5622865523,"Y":33.1986502791,"NAME":"Band of Brothers Brewing Company","URL":null},"geometry":{"type":"Point","coordinates":[-87.56228655199999,33.19865027900005]}},{"type":"Feature","properties":{"X":-70.4526900345,"Y":43.4925699971,"NAME":"Banded Horn Brewing Company","URL":"http://www.bandedhorn.com/beers/"},"geometry":{"type":"Point","coordinates":[-70.45269003399994,43.49256999700003]}},{"type":"Feature","properties":{"X":-104.987465778,"Y":39.723768,"NAME":"Banded Oak Brewing Company","URL":null},"geometry":{"type":"Point","coordinates":[-104.98746577799994,39.723768]}},{"type":"Feature","properties":{"X":-99.0267307349,"Y":29.7421223286,"NAME":"Bandera Ale Project, LLC","URL":null},"geometry":{"type":"Point","coordinates":[-99.02673073499994,29.74212232900004]}},{"type":"Feature","properties":{"X":-114.156381063,"Y":46.2526934666,"NAME":"Bandit Brewing Co","URL":null},"geometry":{"type":"Point","coordinates":[-114.15638106299997,46.25269346700003]}},{"type":"Feature","properties":{"X":-124.411224504,"Y":43.1191324421,"NAME":"Bandon Brewing Company","URL":null},"geometry":{"type":"Point","coordinates":[-124.41122450399996,43.11913244200008]}},{"type":"Feature","properties":{"X":-76.72851,"Y":42.6166675173,"NAME":"Bandwagon Brewery","URL":null},"geometry":{"type":"Point","coordinates":[-76.72851,42.61666751700005]}},{"type":"Feature","properties":{"X":-93.1924787416,"Y":44.9706495551,"NAME":"Bang Brewing","URL":null},"geometry":{"type":"Point","coordinates":[-93.19247874199999,44.97064955500008]}},{"type":"Feature","properties":{"X":-120.645512361,"Y":35.2613115121,"NAME":"Bang the Drum Brewery","URL":null},"geometry":{"type":"Point","coordinates":[-120.64551236099999,35.26131151200008]}},{"type":"Feature","properties":{"X":-115.141229804,"Y":36.1695009562,"NAME":"Banger Brewing Co","URL":null},"geometry":{"type":"Point","coordinates":[-115.14122980399998,36.169500956000036]}},{"type":"Feature","properties":{"X":-80.1553878515,"Y":26.2698798956,"NAME":"Bangin' Banjo Brewing Company","URL":null},"geometry":{"type":"Point","coordinates":[-80.15538785199999,26.269879896000077]}},{"type":"Feature","properties":{"X":-68.7499995229,"Y":44.8278079127,"NAME":"Bangor Beer Co.","URL":null},"geometry":{"type":"Point","coordinates":[-68.74999952299999,44.82780791300007]}},{"type":"Feature","properties":{"X":-75.2050118819,"Y":40.8657764383,"NAME":"Bangor Trust Brewing","URL":null},"geometry":{"type":"Point","coordinates":[-75.20501188199995,40.86577643800007]}},{"type":"Feature","properties":{"X":-96.4257873333,"Y":44.5081533333,"NAME":"Bank Brewing Co","URL":null},"geometry":{"type":"Point","coordinates":[-96.42578733299996,44.50815333300005]}},{"type":"Feature","properties":{"X":-96.5656935,"Y":32.9029504701,"NAME":"Bankhead Brewing Company","URL":null},"geometry":{"type":"Point","coordinates":[-96.56569349999995,32.902950470000064]}},{"type":"Feature","properties":{"X":-80.8521307563,"Y":38.2817009646,"NAME":"Banning's Inc","URL":null},"geometry":{"type":"Point","coordinates":[-80.85213075599995,38.28170096500003]}},{"type":"Feature","properties":{"X":-111.178340071,"Y":45.7750451751,"NAME":"Bar 3 BBQ and Brewing","URL":null},"geometry":{"type":"Point","coordinates":[-111.17834007099998,45.77504517500006]}},{"type":"Feature","properties":{"X":-98.7184821881,"Y":31.1967747076,"NAME":"Bar D Brew House","URL":null},"geometry":{"type":"Point","coordinates":[-98.71848218799994,31.196774708000078]}},{"type":"Feature","properties":{"X":-75.1664436706,"Y":39.9671654996,"NAME":"Bar Hygge / Brewery Techne","URL":null},"geometry":{"type":"Point","coordinates":[-75.16644367099997,39.96716550000008]}},{"type":"Feature","properties":{"X":-135.311143633,"Y":57.0485409515,"NAME":"Baranof Island Brewing Co","URL":null},"geometry":{"type":"Point","coordinates":[-135.31114363299997,57.048540951000064]}},{"type":"Feature","properties":{"X":-116.27187,"Y":43.64501,"NAME":"Barbarian Brewing","URL":null},"geometry":{"type":"Point","coordinates":[-116.27187,43.64501]}},{"type":"Feature","properties":{"X":-77.0075415,"Y":38.870658,"NAME":"Bardo Brewpub","URL":null},"geometry":{"type":"Point","coordinates":[-77.00754149999995,38.870658]}},{"type":"Feature","properties":{"X":-94.3633835,"Y":38.911884,"NAME":"Bard's Brewery, LLC","URL":null},"geometry":{"type":"Point","coordinates":[-94.36338349999994,38.911884]}},{"type":"Feature","properties":{"X":-94.394604806,"Y":38.9168727696,"NAME":"Bard's Tale Beer Co","URL":null},"geometry":{"type":"Point","coordinates":[-94.39460480599996,38.916872770000055]}},{"type":"Feature","properties":{"X":-97.1307067923,"Y":31.524873221,"NAME":"Bare Arms Brewing","URL":null},"geometry":{"type":"Point","coordinates":[-97.13070679199996,31.524873221000064]}},{"type":"Feature","properties":{"X":-88.5934532177,"Y":44.0809775707,"NAME":"Bare Bones Brewery","URL":null},"geometry":{"type":"Point","coordinates":[-88.59345321799998,44.08097757100006]}},{"type":"Feature","properties":{"X":-86.1172804148,"Y":41.7598544572,"NAME":"Bare Hands Brewery","URL":null},"geometry":{"type":"Point","coordinates":[-86.11728041499998,41.759854457000074]}},{"type":"Feature","properties":{"X":-122.409028666,"Y":37.7397154827,"NAME":"Barebottle Brewing Company","URL":null},"geometry":{"type":"Point","coordinates":[-122.40902866599998,37.739715483000055]}},{"type":"Feature","properties":{"X":-123.433044955,"Y":48.1211674799,"NAME":"Barhop Brewing","URL":null},"geometry":{"type":"Point","coordinates":[-123.43304495499996,48.121167480000054]}},{"type":"Feature","properties":{"X":-79.844069507,"Y":36.0618928551,"NAME":"Bark Brewing Company","URL":null},"geometry":{"type":"Point","coordinates":[-79.84406950699997,36.06189285500005]}},{"type":"Feature","properties":{"X":-75.4915909624,"Y":43.7868610744,"NAME":"BarkEater Craft Brewery","URL":null},"geometry":{"type":"Point","coordinates":[-75.49159096199998,43.78686107400006]}},{"type":"Feature","properties":{"X":-80.680579019,"Y":35.1525903641,"NAME":"Barking Duck Brewing Company","URL":null},"geometry":{"type":"Point","coordinates":[-80.68057901899994,35.15259036400005]}},{"type":"Feature","properties":{"X":-77.4002799517,"Y":39.3817900516,"NAME":"Barley and Hops Grill","URL":null},"geometry":{"type":"Point","coordinates":[-77.40027995199995,39.38179005200004]}},{"type":"Feature","properties":{"X":-114.349560048,"Y":34.4703000284,"NAME":"Barley Brothers Brewery","URL":"http://barleybrothers.com/"},"geometry":{"type":"Point","coordinates":[-114.34956004799994,34.470300028000054]}},{"type":"Feature","properties":{"X":-117.829719926,"Y":44.77877,"NAME":"Barley Browns Brewpub","URL":"http://barleybrowns.com/"},"geometry":{"type":"Point","coordinates":[-117.82971992599994,44.77877]}},{"type":"Feature","properties":{"X":-75.3287700167,"Y":41.0527500255,"NAME":"Barley Creek Brewing Co","URL":null},"geometry":{"type":"Point","coordinates":[-75.32877001699995,41.05275002600007]}},{"type":"Feature","properties":{"X":-117.887836508,"Y":33.6787646123,"NAME":"Barley Forge Brewing","URL":null},"geometry":{"type":"Point","coordinates":[-117.88783650799996,33.678764612000066]}},{"type":"Feature","properties":{"X":-86.01574,"Y":40.04558,"NAME":"Barley Island Brewing Co","URL":null},"geometry":{"type":"Point","coordinates":[-86.01574,40.04558]}},{"type":"Feature","properties":{"X":-93.19861997,"Y":45.036229945,"NAME":"Barley Johns Brewpub","URL":"http://www.barleyjohns.com"},"geometry":{"type":"Point","coordinates":[-93.19861996999998,45.03622994500006]}},{"type":"Feature","properties":{"X":-92.5503266727,"Y":45.1055540761,"NAME":"Barley Johns Brewpub","URL":null},"geometry":{"type":"Point","coordinates":[-92.55032667299997,45.10555407600003]}},{"type":"Feature","properties":{"X":-82.7940825,"Y":27.916750486,"NAME":"Barley Mow Brewing Co","URL":null},"geometry":{"type":"Point","coordinates":[-82.79408249999994,27.91675048600007]}},{"type":"Feature","properties":{"X":-82.7895829318,"Y":27.9213365368,"NAME":"Barley Mow Brewing Co","URL":null},"geometry":{"type":"Point","coordinates":[-82.78958293199997,27.92133653700006]}},{"type":"Feature","properties":{"X":-122.433879323,"Y":45.5178399053,"NAME":"Barley Sprouts Brewery","URL":null},"geometry":{"type":"Point","coordinates":[-122.43387932299999,45.51783990500007]}},{"type":"Feature","properties":{"X":-83.0025500733,"Y":39.9719399489,"NAME":"Barley's Brewing Company (Ale House No. 1)","URL":"http://barleysbrewing.com"},"geometry":{"type":"Point","coordinates":[-83.00255007299995,39.971939949000046]}},