{"type":"FeatureCollection","crs":{"type":"name","properties":{"name":"EPSG:4326"}}, "features": [
{"type":"Feature","geometry":{"type":"Point","coordinates":[-121.28216299999997,44.08594800000003]},"properties":{"OBJECTID":1,"X":-121.28216299999997,"Y":44.08594800000006,"NAME":"10 Barrel Brewing Co","BREW_TYPE":"Large","URL_12":"www.10barrel.com"},"id":1},
{"type":"Feature","geometry":{"type":"Point","coordinates":[-121.28216299999997,44.08594800000003]},"properties":{"OBJECTID":2,"X":-121.28216299999997,"Y":44.08594800000006,"NAME":"10 Barrel Brewing Co","BREW_TYPE":"Large","URL_12":"www.10barrel.com"},"id":2},
{"type":"Feature","geometry":{"type":"Point","coordinates":[-121.28216299999997,44.08594800000003]},"properties":{"OBJECTID":3,"X":-121.28216299999997,"Y":44.08594800000006,"NAME":"10 Barrel Brewing Co","BREW_TYPE":"Large","URL_12":"www.10barrel.com"},"id":3},
{"type":"Feature","geometry":{"type":"Point","coordinates":[-121.28216299999997,44.08594800000003]},"properties":{"OBJECTID":4,"X":-121.28216299999997,"Y":44.08594800000006,"NAME":"10 Barrel Brewing Co","BREW_TYPE":"Large","URL_12":"10barrel.com"},"id":4},
{"type":"Feature","geometry":{"type":"Point","coordinates":[-121.28216299999997,44.08594800000003]},"properties":{"OBJECTID":5,"X":-121.28216299999997,"Y":44.08594800000006,"NAME":"10 Barrel Brewing Co","BREW_TYPE":"Large","URL_12":""},"id":5},
{"type":"Feature","geometry":{"type":"Point","coordinates":[-116.20238639099995,43.61740936600006]},"properties":{"OBJECTID":6,"X":-116.20238639080333,"Y":43.61740936559198,"NAME":"10 Barrel Brewing Co","BREW_TYPE":"Large","URL_12":"www.10barrel.com"},"id":6},
{"type":"Feature","geometry":{"type":"Point","coordinates":[-116.20238639099995,43.61740936600006]},"properties":{"OBJECTID":7,"X":-116.20238639080333,"Y":43.61740936559198,"NAME":"10 Barrel Brewing Co","BREW_TYPE":"Large","URL_12":"www.10barrel.com"},"id":7},
{"type":"Feature","geometry":{"type":"Point","coordinates":[-116.20238639099995,43.61740936600006]},"properties":{"OBJECTID":8,"X":-116.20238639080333,"Y":43.61740936559198,"NAME":"10 Barrel Brewing Co","BREW_TYPE":"Large","URL_12":"www.10barrel.com"},"id":8},
{"type":"Feature","geometry":{"type":"Point","coordinates":[-116.20238639099995,43.61740936600006]},"properties":{"OBJECTID":9,"X":-116.20238639080333,"Y":43.61740936559198,"NAME":"10 Barrel Brewing Co","BREW_TYPE":"Large","URL_12":"10barrel.com"},"id":9},
{"type":"Feature","geometry":{"type":"Point","coordinates":[-116.20238639099995,43.61740936600006]},"properties":{"OBJECTID":10,"X":-116.20238639080333,"Y":43.61740936559198,"NAME":"10 Barrel Brewing Co","BREW_TYPE":"Large","URL_12":""},"id":10},
{"type":"Feature","geometry":{"type":"Point","coordinates":[-122.68577999999997,45.52579001500004]},"properties":{"OBJECTID":11,"X":-122.68577999999997,"Y":45.52579001500369,"NAME":"10 Barrel Brewing Co","BREW_TYPE":"Large","URL_12":"www.10barrel.com"},"id":11},
{"type":"Feature","geometry":{"type":"Point","coordinates":[-122.68577999999997,45.52579001500004]},"properties":{"OBJECTID":12,"X":-122.68577999999997,"Y":45.52579001500369,"NAME":"10 Barrel Brewing Co","BREW_TYPE":"Large","URL_12":"www.10barrel.com"},"id":12},
{"type":"Feature","geometry":{"type":"Point","coordinates":[-122.68577999999997,45.52579001500004]},"properties":{"OBJECTID":13,"X":-122.68577999999997,"Y":45.52579001500369,"NAME":"10 Barrel Brewing Co","BREW_TYPE":"Large","URL_12":"www.10barrel.com"},"id":13},
{"type":"Feature","geometry":{"type":"Point","coordinates":[-122.68577999999997,45.52579001500004]},"properties":{"OBJECTID":14,"X":-122.68577999999997,"Y":45.52579001500369,"NAME":"10 Barrel Brewing Co","BREW_TYPE":"Large","URL_12":"10barrel.com"},"id":14},
{"type":"Feature","geometry":{"type":"Point","coordinates":[-122.68577999999997,45.52579001500004]},"properties":{"OBJECTID":15,"X":-122.68577999999997,"Y":45.52579001500369,"NAME":"10 Barrel Brewing Co","BREW_TYPE":"Large","URL_12":""},"id":15},
{"type":"Feature","geometry":{"type":"Point","coordinates":[-117.15018299999997,32.714669496000056]},"properties":{"OBJECTID":16,"X":-117.150183,"Y":32.714669495672176,"NAME":"10 Barrel Brewing Co","BREW_TYPE":"Large","URL_12":"www.10barrel.com"},"id":16},
{"type":"Feature","geometry":{"type":"Point","coordinates":[-117.15018299999997,32.714669496000056]},"properties":{"OBJECTID":17,"X":-117.150183,"Y":32.714669495672176,"NAME":"10 Barrel Brewing Co","BREW_TYPE":"Large","URL_12":"www.10barrel.com"},"id":17},
{"type":"Feature","geometry":{"type":"Point","coordinates":[-117.15018299999997,32.714669496000056]},"properties":{"OBJECTID":18,"X":-117.150183,"Y":32.714669495672176,"NAME":"10 Barrel Brewing Co","BREW_TYPE":"Large","URL_12":"www.10barrel.com"},"id":18},
{"type":"Feature","geometry":{"type":"Point","coordinates":[-117.15018299999997,32.714669496000056]},"properties":{"OBJECTID":19,"X":-117.150183,"Y":32.714669495672176,"NAME":"10 Barrel Brewing Co","BREW_TYPE":"Large","URL_12":"10barrel.com"},"id":19},
{"type":"Feature","geometry":{"type":"Point","coordinates":[-117.15018299999997,32.714669496000056]},"properties":{"OBJECTID":20,"X":-117.150183,"Y":32.714669495672176,"NAME":"10 Barrel Brewing Co","BREW_TYPE":"Large","URL_12":""},"id":20},
{"type":"Feature","geometry":{"type":"Point","coordinates":[-121.32851399999998,44.056599540000036]},"properties":{"OBJECTID":21,"X":-121.328514,"Y":44.05659953952925,"NAME":"10 Barrel Brewing Co","BREW_TYPE":"Large","URL_12":"www.10barrel.com"},"id":21},
{"type":"Feature","geometry":{"type":"Point","coordinates":[-121.32851399999998,44.056599540000036]},"properties":{"OBJECTID":22,"X":-121.328514,"Y":44.05659953952925,"NAME":"10 Barrel Brewing Co","BREW_TYPE":"Large","URL_12":"www.10barrel.com"},"id":22},
{"type":"Feature","geometry":{"type":"Point","coordinates":[-121.32851399999998,44.056599540000036]},"properties":{"OBJECTID":23,"X":-121.328514,"Y":44.05659953952925,"NAME":"10 Barrel Brewing Co","BREW_TYPE":"Large","URL_12":"www.10barrel.com"},"id":23},
{"type":"Feature","geometry":{"type":"Point","coordinates":[-121.32851399999998,44.056599540000036]},"properties":{"OBJECTID":24,"X":-121.328514,"Y":44.05659953952925,"NAME":"10 Barrel Brewing Co","BREW_TYPE":"Large","URL_12":"10barrel.com"},"id":24},
{"type":"Feature","geometry":{"type":"Point","coordinates":[-121.32851399999998,44.056599540000036]},"properties":{"OBJECTID":25,"X":-121.328514,"Y":44.05659953952925,"NAME":"10 Barrel Brewing Co","BREW_TYPE":"Large","URL_12":""},"id":25},
{"type":"Feature","geometry":{"type":"Point","coordinates":[-121.28196857999995,44.08601859200007]},"properties":{"OBJECTID":26,"X":-121.28196857983791,"Y":44.086018592244486,"NAME":"10 Barrel Brewing Co - Bend Pub","BREW_TYPE":"Large","URL_12":""},"id":26},
{"type":"Feature","geometry":{"type":"Point","coordinates":[-104.98575294699998,39.759519468000065]},"properties":{"OBJECTID":27,"X":-104.98575294656361,"Y":39.75951946849217,"NAME":"10 Barrel Brewing Co - Denver","BREW_TYPE":"Large","URL_12":""},"id":27},
{"type":"Feature","geometry":{"type":"Point","coordinates":[-122.87566774899994,47.822540708000076]},"properties":{"OBJECTID":28,"X":-122.87566774851798,"Y":47.82254070846043,"NAME":"101 Brewery","BREW_TYPE":"Brewpub","URL_12":"www.101brewery.com"},"id":28},
{"type":"Feature","geometry":{"type":"Point","coordinates":[-122.66528076499998,38.270132760000024]},"properties":{"OBJECTID":29,"X":-122.66528076516266,"Y":38.270132760459475,"NAME":"101 North Brewing Company","BREW_TYPE":"Micro","URL_12":"www.101northbeer.com"},"id":29},
{"type":"Feature","geometry":{"type":"Point","coordinates":[-104.86615650299996,39.38130002200006]},"properties":{"OBJECTID":30,"X":-104.86615650339552,"Y":39.381300021752004,"NAME":"105 West Brewing Co","BREW_TYPE":"Micro","URL_12":"www.105westbrewing.com"},"id":30},
{"type":"Feature","geometry":{"type":"Point","coordinates":[-93.38940998399994,45.19826197400005]},"properties":{"OBJECTID":31,"X":-93.38940998364004,"Y":45.19826197446477,"NAME":"10K Brewing","BREW_TYPE":"Micro","URL_12":"10KBrew.com"},"id":31},
{"type":"Feature","geometry":{"type":"Point","coordinates":[-70.94620233899997,42.105756909000036]},"properties":{"OBJECTID":32,"X":-70.94620233899838,"Y":42.105756909227416,"NAME":"10th District Brewing Company","BREW_TYPE":"Micro","URL_12":"www.10thdistrictbrewing.com"},"id":32},
{"type":"Feature","geometry":{"type":"Point","coordinates":[-95.51844433099996,29.951364738000052]},"properties":{"OBJECTID":33,"X":-95.51844433071714,"Y":29.95136473829978,"NAME":"11 Below Brewing Company","BREW_TYPE":"Micro","URL_12":"www.11belowbrewing.com"},"id":33},
{"type":"Feature","geometry":{"type":"Point","coordinates":[-118.95187997399995,44.41610003300008]},"properties":{"OBJECTID":34,"X":-118.95187997446476,"Y":44.41610003332557,"NAME":"1188 Brewing Co","BREW_TYPE":"Brewpub","URL_12":"www.1188brewing.com"},"id":34},
{"type":"Feature","geometry":{"type":"Point","coordinates":[-78.71531405299999,42.95378826800004]},"properties":{"OBJECTID":35,"X":-78.71531405300368,"Y":42.95378826810553,"NAME":"12 Gates Brewing Company","BREW_TYPE":"Micro","URL_12":"www.12gatesbrewing.com"},"id":35},
{"type":"Feature","geometry":{"type":"Point","coordinates":[-111.72616127699996,33.32124351600004]},"properties":{"OBJECTID":36,"X":-111.72616127699231,"Y":33.32124351601325,"NAME":"12 West Brewing Company","BREW_TYPE":"Micro","URL_12":"www.12westbrewing.com"},"id":36},
{"type":"Feature","geometry":{"type":"Point","coordinates":[-84.43106704799999,42.286539291000054]},"properties":{"OBJECTID":37,"X":-84.43106704838647,"Y":42.28653929058233,"NAME":"127 Brewing","BREW_TYPE":"Micro","URL_12":""},"id":37},
{"type":"Feature","geometry":{"type":"Point","coordinates":[-105.13208712799997,39.97827900000004]},"properties":{"OBJECTID":38,"X":-105.1320871281957,"Y":39.978279000000015,"NAME":"12Degree Brewing","BREW_TYPE":"Brewpub","URL_12":"www.12degree.com"},"id":38},
{"type":"Feature","geometry":{"type":"Point","coordinates":[-93.08943880499999,44.947040816000026]},"properties":{"OBJECTID":39,"X":-93.08943880482653,"Y":44.94704081628615,"NAME":"12welve Eyes Brewing","BREW_TYPE":"Micro","URL_12":"www.12welveEyes.com"},"id":39},
{"type":"Feature","geometry":{"type":"Point","coordinates":[-84.70680607699995,39.127055136000024]},"properties":{"OBJECTID":40,"X":-84.70680607692279,"Y":39.12705513569753,"NAME":"13 Below Brewery","BREW_TYPE":"Micro","URL_12":"www.13belowbrewery.com"},"id":40},
{"type":"Feature","geometry":{"type":"Point","coordinates":[-82.28727269599995,34.920073278000075]},"properties":{"OBJECTID":41,"X":-82.28727269590246,"Y":34.92007327804994,"NAME":"13 Stripes Brewery","BREW_TYPE":"Brewpub","URL_12":"www.13StripesBrewery.com"},"id":41},
{"type":"Feature","geometry":{"type":"Point","coordinates":[-122.64902443899996,45.47619979600006]},"properties":{"OBJECTID":42,"X":-122.64902443877334,"Y":45.476199796006675,"NAME":"13 Virtues Brewing Co","BREW_TYPE":"Brewpub","URL_12":"www.13virtuesbrewing.com"},"id":42},
{"type":"Feature","geometry":{"type":"Point","coordinates":[-78.63574312899993,35.79990833100004]},"properties":{"OBJECTID":43,"X":-78.63574312865707,"Y":35.79990833086139,"NAME":"1323 R &  D","BREW_TYPE":null,"URL_12":null},"id":43},
{"type":"Feature","geometry":{"type":"Point","coordinates":[-118.80309277799995,34.15347485800004]},"properties":{"OBJECTID":44,"X":-118.80309277833429,"Y":34.153474857858384,"NAME":"14 Cannons Brewing Company","BREW_TYPE":"Micro","URL_12":"14cannons.com"},"id":44},
{"type":"Feature","geometry":{"type":"Point","coordinates":[-94.11260268099994,46.686955201000046]},"properties":{"OBJECTID":45,"X":-94.11260268053557,"Y":46.68695520122338,"NAME":"14 Lakes Brewery","BREW_TYPE":"Micro","URL_12":""},"id":45},
{"type":"Feature","geometry":{"type":"Point","coordinates":[-82.65194192199993,40.083885449000036]},"properties":{"OBJECTID":46,"X":-82.65194192200934,"Y":40.083885449362235,"NAME":"1487 Brewery","BREW_TYPE":"Micro","URL_12":""},"id":46},
{"type":"Feature","geometry":{"type":"Point","coordinates":[-104.983650937,39.76123955700007]},"properties":{"OBJECTID":47,"X":-104.98365093686876,"Y":39.76123955704305,"NAME":"14er Brewing Company","BREW_TYPE":"Proprietor","URL_12":"www.14erBrewing.com"},"id":47},
{"type":"Feature","geometry":{"type":"Point","coordinates":[-73.08263638299997,44.814955327000064]},"properties":{"OBJECTID":48,"X":-73.08263638299968,"Y":44.814955327226045,"NAME":"14th Star Brewing","BREW_TYPE":"Micro","URL_12":"www.14thstarbrewing.com"},"id":48},
{"type":"Feature","geometry":{"type":"Point","coordinates":[-84.32578966599993,39.34894209400005]},"properties":{"OBJECTID":49,"X":-84.3257896663104,"Y":39.34894209385967,"NAME":"16 Lots Brewing","BREW_TYPE":"Brewpub","URL_12":"www.16lots.com"},"id":49},
{"type":"Feature","geometry":{"type":"Point","coordinates":[-75.37908760299996,38.67822752200004]},"properties":{"OBJECTID":50,"X":-75.37908760263183,"Y":38.67822752207278,"NAME":"16 Mile Brewing Co","BREW_TYPE":"Micro","URL_12":"www.16milebrewery.com"},"id":50},
{"type":"Feature","geometry":{"type":"Point","coordinates":[-75.25640857799993,43.24206042700007]},"properties":{"OBJECTID":51,"X":-75.25640857825044,"Y":43.242060427405036,"NAME":"16 Stone Brewpub","BREW_TYPE":"Brewpub","URL_12":"www.16stonebrewpub.com"},"id":51},
{"type":"Feature","geometry":{"type":"Point","coordinates":[-76.99806633599997,39.54628842900007]},"properties":{"OBJECTID":52,"X":-76.9980663361415,"Y":39.54628842936693,"NAME":"1623 Brewing CO, llc","BREW_TYPE":"Contract","URL_12":""},"id":52},
{"type":"Feature","geometry":{"type":"Point","coordinates":[-75.97189590599999,35.10715571000003]},"properties":{"OBJECTID":53,"X":-75.97189590562073,"Y":35.10715570999459,"NAME":"1718 Ocracoke Brewing","BREW_TYPE":"Brewpub","URL_12":"www.ocracokebrewing.com"},"id":53},
{"type":"Feature","geometry":{"type":"Point","coordinates":[-77.71883624199995,38.32442931000003]},"properties":{"OBJECTID":54,"X":-77.71883624182048,"Y":38.324429309710375,"NAME":"1781 Brewing Company","BREW_TYPE":"Micro","URL_12":""},"id":54},
{"type":"Feature","geometry":{"type":"Point","coordinates":[-80.15060481999996,40.50776928400006]},"properties":{"OBJECTID":55,"X":-80.15060481960866,"Y":40.50776928420567,"NAME":"180 and Tapped","BREW_TYPE":"Micro","URL_12":"www.180andtapped.com"},"id":55},
{"type":"Feature","geometry":{"type":"Point","coordinates":[-88.74984237299998,34.004472606000036]},"properties":{"OBJECTID":56,"X":-88.74984237337915,"Y":34.004472605578876,"NAME":"1817 Brewery","BREW_TYPE":"Micro","URL_12":""},"id":56},
{"type":"Feature","geometry":{"type":"Point","coordinates":[-87.90610674999994,43.004349554000044]},"properties":{"OBJECTID":57,"X":-87.90610674966443,"Y":43.00434955435843,"NAME":"1840 Brewing Company","BREW_TYPE":"Micro","URL_12":"www.1840brewing.com"},"id":57},
{"type":"Feature","geometry":{"type":"Point","coordinates":[-87.51746626799996,41.615136335000045]},"properties":{"OBJECTID":58,"X":-87.51746626836533,"Y":41.615136335276134,"NAME":"18th Street Brewery","BREW_TYPE":"Micro","URL_12":""},"id":58},
{"type":"Feature","geometry":{"type":"Point","coordinates":[-87.51746626799996,41.615136335000045]},"properties":{"OBJECTID":59,"X":-87.51746626836533,"Y":41.615136335276134,"NAME":"18th Street Brewery","BREW_TYPE":"Micro","URL_12":"www.18thstreetbrewery.com"},"id":59},
{"type":"Feature","geometry":{"type":"Point","coordinates":[-87.26895937199998,41.59928662800007]},"properties":{"OBJECTID":60,"X":-87.26895937208303,"Y":41.59928662827485,"NAME":"18th Street Brewery","BREW_TYPE":"Micro","URL_12":""},"id":60},
{"type":"Feature","geometry":{"type":"Point","coordinates":[-87.26895937199998,41.59928662800007]},"properties":{"OBJECTID":61,"X":-87.26895937208303,"Y":41.59928662827485,"NAME":"18th Street Brewery","BREW_TYPE":"Micro","URL_12":"www.18thstreetbrewery.com"},"id":61},
{"type":"Feature","geometry":{"type":"Point","coordinates":[-110.99345231499996,32.24681380000004]},"properties":{"OBJECTID":62,"X":-110.9934523151939,"Y":32.246813800132955,"NAME":"1912 Brewing","BREW_TYPE":"Micro","URL_12":"www.1912brewing.com"},"id":62},
{"type":"Feature","geometry":{"type":"Point","coordinates":[-122.24261999599997,47.75641001900004]},"properties":{"OBJECTID":63,"X":-122.24261999610482,"Y":47.756410018898855,"NAME":"192 Brewing","BREW_TYPE":"Brewpub","URL_12":"www.192brewing.com"},"id":63},
{"type":"Feature","geometry":{"type":"Point","coordinates":[-73.08422799499994,40.78327331300005]},"properties":{"OBJECTID":64,"X":-73.08422799547061,"Y":40.783273312799324,"NAME":"1940's Brewing Company","BREW_TYPE":"Micro","URL_12":"www.1940sbrewingcompany.com"},"id":64},
{"type":"Feature","geometry":{"type":"Point","coordinates":[-73.08489877699998,44.48345546400003]},"properties":{"OBJECTID":65,"X":-73.08489877684809,"Y":44.48345546436588,"NAME":"1st Republic Brewing Co","BREW_TYPE":"Micro","URL_12":"www.1strepublic-homebrew.com"},"id":65},
{"type":"Feature","geometry":{"type":"Point","coordinates":[-110.90099283499995,46.548160471000074]},"properties":{"OBJECTID":66,"X":-110.90099283527613,"Y":46.54816047071388,"NAME":"2 Basset Brewery","BREW_TYPE":"Micro","URL_12":"www.2bassetbrewery.com"},"id":66},
{"type":"Feature","geometry":{"type":"Point","coordinates":[-75.87780451799995,41.83258912900004]},"properties":{"OBJECTID":67,"X":-75.87780451846608,"Y":41.83258912877263,"NAME":"2 Dogz and A Guy Brewing","BREW_TYPE":"Micro","URL_12":"2dogzandaguybrewing.com"},"id":67},
{"type":"Feature","geometry":{"type":"Point","coordinates":[-68.77285301199998,44.80022207600007]},"properties":{"OBJECTID":68,"X":-68.77285301151252,"Y":44.80022207576894,"NAME":"2 Feet Brewing Company","BREW_TYPE":"Brewpub","URL_12":"www.2feetbrewing.com"},"id":68},
{"type":"Feature","geometry":{"type":"Point","coordinates":[-111.89969923299998,40.626827193000054]},"properties":{"OBJECTID":69,"X":-111.89969923261563,"Y":40.626827193173284,"NAME":"2 Row Brewing","BREW_TYPE":"Micro","URL_12":"www.2rowbrewing.com"},"id":69},
{"type":"Feature","geometry":{"type":"Point","coordinates":[-77.52373769999997,38.78633290000005]},"properties":{"OBJECTID":70,"X":-77.52373769999997,"Y":38.78633290000005,"NAME":"2 Silos Brewing Company","BREW_TYPE":"Micro","URL_12":"www.2silosbrewing.com"},"id":70},
{"type":"Feature","geometry":{"type":"Point","coordinates":[-122.71765065699998,38.439759640000034]},"properties":{"OBJECTID":71,"X":-122.71765065689928,"Y":38.43975964010564,"NAME":"2 Tread Brewing Co","BREW_TYPE":"Brewpub","URL_12":"www.2treadbrewing.com"},"id":71},
{"type":"Feature","geometry":{"type":"Point","coordinates":[-73.98068517399997,41.50800606400003]},"properties":{"OBJECTID":72,"X":-73.9806851740147,"Y":41.5080060635926,"NAME":"2 Way Brewing Company","BREW_TYPE":"Micro","URL_12":"www.2waybrewingcompany.com"},"id":72},
{"type":"Feature","geometry":{"type":"Point","coordinates":[-79.42154459599999,36.58578509900008]},"properties":{"OBJECTID":73,"X":-79.42154459625519,"Y":36.58578509931362,"NAME":"2 Witches Winery and Brewing Company","BREW_TYPE":"Micro","URL_12":"www.2witcheswinebrew.com"},"id":73},
{"type":"Feature","geometry":{"type":"Point","coordinates":[-122.15303753999996,47.76554484400003]},"properties":{"OBJECTID":74,"X":-122.15303753987598,"Y":47.76554484424796,"NAME":"20 Corners Brewing LLC","BREW_TYPE":"Brewpub","URL_12":"www.20cornersbrewing.com"},"id":74},
{"type":"Feature","geometry":{"type":"Point","coordinates":[-122.18419099599998,48.21504751000003]},"properties":{"OBJECTID":75,"X":-122.18419099570083,"Y":48.215047509521966,"NAME":"210 Brewing Co","BREW_TYPE":"Brewpub","URL_12":"www.angelofthewind.com"},"id":75},
{"type":"Feature","geometry":{"type":"Point","coordinates":[-74.75295170499999,42.441247161000035]},"properties":{"OBJECTID":76,"X":-74.75295170488737,"Y":42.44124716059854,"NAME":"212 Brewing Company","BREW_TYPE":"Contract","URL_12":""},"id":76},
{"type":"Feature","geometry":{"type":"Point","coordinates":[-77.91231003499996,35.72281525400007]},"properties":{"OBJECTID":77,"X":-77.9123100345376,"Y":35.722815253967255,"NAME":"217 Brew Works","BREW_TYPE":"Micro","URL_12":""},"id":77},
{"type":"Feature","geometry":{"type":"Point","coordinates":[-122.17669233299995,37.71061008200007]},"properties":{"OBJECTID":78,"X":-122.17669233328462,"Y":37.71061008228889,"NAME":"21st Amendment Brewery","BREW_TYPE":"Regional","URL_12":"www.21st-Amendment.com"},"id":78},
{"type":"Feature","geometry":{"type":"Point","coordinates":[-122.39266995899999,37.78236001500005]},"properties":{"OBJECTID":79,"X":-122.39266995946109,"Y":37.782360015003704,"NAME":"21st Amendment Brewery Cafe","BREW_TYPE":"Brewpub","URL_12":"www.21st-amendment.com"},"id":79},
{"type":"Feature","geometry":{"type":"Point","coordinates":[-82.76594293399995,37.697462243000075]},"properties":{"OBJECTID":80,"X":-82.76594293411708,"Y":37.697462243017206,"NAME":"23 Brewing Company / Lizzie B's Cafe","BREW_TYPE":"Brewpub","URL_12":"www.23brewingcompany.com"},"id":80},
{"type":"Feature","geometry":{"type":"Point","coordinates":[-117.35437459999997,47.769988400000045]},"properties":{"OBJECTID":81,"X":-117.35437459999997,"Y":47.769988400000045,"NAME":"238 Brewing Company","BREW_TYPE":"Micro","URL_12":"www.238brewing.com"},"id":81},
{"type":"Feature","geometry":{"type":"Point","coordinates":[-95.28090999999995,38.94273007700008]},"properties":{"OBJECTID":82,"X":-95.28090999999995,"Y":38.94273007718265,"NAME":"23rd Street Brewery","BREW_TYPE":"Brewpub","URL_12":"www.brew23.com"},"id":82},
{"type":"Feature","geometry":{"type":"Point","coordinates":[-80.09711155499997,26.231741510000063]},"properties":{"OBJECTID":83,"X":-80.09711155536961,"Y":26.231741510098892,"NAME":"26 Degree Brewing Company","BREW_TYPE":"Micro","URL_12":""},"id":83},
{"type":"Feature","geometry":{"type":"Point","coordinates":[-117.13680470999998,32.89622605100004]},"properties":{"OBJECTID":84,"X":-117.13680471002326,"Y":32.89622605109911,"NAME":"2Kids Brewing Company","BREW_TYPE":"Micro","URL_12":"www.2kidsBrewing.com"},"id":84},
{"type":"Feature","geometry":{"type":"Point","coordinates":[-90.28056462699999,38.62132860000003]},"properties":{"OBJECTID":85,"X":-90.28056462718517,"Y":38.621328600063414,"NAME":"2nd Shift Brewing Co","BREW_TYPE":"Micro","URL_12":"www.2ndshiftbrewing.com"},"id":85},
{"type":"Feature","geometry":{"type":"Point","coordinates":[-75.14350998199996,39.948320041000045]},"properties":{"OBJECTID":86,"X":-75.14350998167812,"Y":39.94832004053889,"NAME":"2nd Story Brewing Company","BREW_TYPE":"Brewpub","URL_12":"http://www.2ndstorybrewing.com/"},"id":86},
{"type":"Feature","geometry":{"type":"Point","coordinates":[-75.40576344299996,39.85629362000003]},"properties":{"OBJECTID":87,"X":-75.40576344289968,"Y":39.85629361961917,"NAME":"2SP Brewing Company","BREW_TYPE":"Micro","URL_12":"www.2spbrewing.com"},"id":87},
{"type":"Feature","geometry":{"type":"Point","coordinates":[-72.73036824499997,42.392622104000054]},"properties":{"OBJECTID":88,"X":-72.73036824467643,"Y":42.39262210404547,"NAME":"3 Beards Beer Company","BREW_TYPE":"Contract","URL_12":"www.3beardsbeer.com"},"id":88},
{"type":"Feature","geometry":{"type":"Point","coordinates":[-82.66298042699998,27.76880602600005]},"properties":{"OBJECTID":89,"X":-82.66298042694369,"Y":27.768806025535223,"NAME":"3 Daughters Brewing","BREW_TYPE":"Micro","URL_12":"www.3dbrewing.com"},"id":89},
{"type":"Feature","geometry":{"type":"Point","coordinates":[-122.78847457299997,38.349456651000025]},"properties":{"OBJECTID":90,"X":-122.78847457255856,"Y":38.34945665091827,"NAME":"3 Disciples Brewing","BREW_TYPE":"Micro","URL_12":"www.3disciplesbrewing.com/home"},"id":90},
{"type":"Feature","geometry":{"type":"Point","coordinates":[-104.90570138799995,39.56529250300008]},"properties":{"OBJECTID":91,"X":-104.90570138773155,"Y":39.56529250288553,"NAME":"3 Freaks Brewing Co","BREW_TYPE":"Micro","URL_12":"www.3freaksbrewery.com"},"id":91},
{"type":"Feature","geometry":{"type":"Point","coordinates":[-117.30692029499994,34.05589200000003]},"properties":{"OBJECTID":92,"X":-117.30692029482418,"Y":34.055892,"NAME":"3 Iron Brewing Company","BREW_TYPE":"Micro","URL_12":"www.3ironbrewingco.com"},"id":92},
{"type":"Feature","geometry":{"type":"Point","coordinates":[-82.53273149999995,27.496371516000067]},"properties":{"OBJECTID":93,"X":-82.5327315,"Y":27.496371516013248,"NAME":"3 Keys Brewing Company, LLC","BREW_TYPE":"Brewpub","URL_12":"www.3keysbrewing.com"},"id":93},
{"type":"Feature","geometry":{"type":"Point","coordinates":[-96.89830191599998,32.930597523000074]},"properties":{"OBJECTID":94,"X":-96.89830191618097,"Y":32.93059752264969,"NAME":"3 Nations Brewing","BREW_TYPE":"Micro","URL_12":"www.threenationsbrewing.com"},"id":94},
{"type":"Feature","geometry":{"type":"Point","coordinates":[-87.73077149999995,43.773912547000066]},"properties":{"OBJECTID":95,"X":-87.7307715,"Y":43.77391254674262,"NAME":"3 Sheeps Brewing Co","BREW_TYPE":"Micro","URL_12":"www.3sheepsbrewing.com"},"id":95},
{"type":"Feature","geometry":{"type":"Point","coordinates":[-123.12719773599997,44.65960122300004]},"properties":{"OBJECTID":96,"X":-123.12719773633789,"Y":44.65960122344037,"NAME":"3 Sheets Brewery","BREW_TYPE":"Micro","URL_12":"www.3sheetsbrewery.com"},"id":96},
{"type":"Feature","geometry":{"type":"Point","coordinates":[-80.14378941499996,26.05706994800005]},"properties":{"OBJECTID":97,"X":-80.14378941543116,"Y":26.057069947544573,"NAME":"3 Sons Brewing Co.","BREW_TYPE":"Contract","URL_12":"www.3sonsbrewingco.com"},"id":97},
{"type":"Feature","geometry":{"type":"Point","coordinates":[-77.01274349999994,38.96755200000007]},"properties":{"OBJECTID":98,"X":-77.0127435,"Y":38.96755200000001,"NAME":"3 Stars Brewing Co","BREW_TYPE":"Micro","URL_12":"www.3starsbrewing.com"},"id":98},
{"type":"Feature","geometry":{"type":"Point","coordinates":[-72.36962611999996,41.30238768400005]},"properties":{"OBJECTID":99,"X":-72.36962611994316,"Y":41.302387683911114,"NAME":"30 Mile Brewing Co.","BREW_TYPE":"Micro","URL_12":"www.30milebrewingco.com"},"id":99},
{"type":"Feature","geometry":{"type":"Point","coordinates":[-105.10106399999995,40.16018447700003]},"properties":{"OBJECTID":100,"X":-105.101064,"Y":40.16018447735031,"NAME":"300 Suns Brewing Company","BREW_TYPE":"Micro","URL_12":"www.300sunsbrewing.com"},"id":100},
{"type":"Feature","geometry":{"type":"Point","coordinates":[-117.16582985199994,32.88270394600005]},"properties":{"OBJECTID":101,"X":-117.16582985212703,"Y":32.8827039461596,"NAME":"32 North Brewing Co","BREW_TYPE":"Micro","URL_12":""},"id":101},
{"type":"Feature","geometry":{"type":"Point","coordinates":[-78.38604965099995,33.97283555400003]},"properties":{"OBJECTID":102,"X":-78.38604965130675,"Y":33.97283555430177,"NAME":"34 Degree North Experiment Station","BREW_TYPE":"Micro","URL_12":""},"id":102},
{"type":"Feature","geometry":{"type":"Point","coordinates":[-87.79197184299994,41.55860831100006]},"properties":{"OBJECTID":103,"X":-87.79197184345982,"Y":41.55860831093828,"NAME":"350 Brewing Co","BREW_TYPE":"Brewpub","URL_12":"www.350brewing.com"},"id":103},
{"type":"Feature","geometry":{"type":"Point","coordinates":[-104.98866649999997,39.57043386700008]},"properties":{"OBJECTID":104,"X":-104.98866650031222,"Y":39.570433866753014,"NAME":"38 State Brewing","BREW_TYPE":"Micro","URL_12":"www.38statebrew.com"},"id":104},
{"type":"Feature","geometry":{"type":"Point","coordinates":[-75.07497919199994,38.695366163000074]},"properties":{"OBJECTID":105,"X":-75.07497919190386,"Y":38.695366162646415,"NAME":"38°-75° Brewing","BREW_TYPE":"Brewpub","URL_12":""},"id":105},
{"type":"Feature","geometry":{"type":"Point","coordinates":[-71.83023124799996,42.24405782700006]},"properties":{"OBJECTID":106,"X":-71.8302312475209,"Y":42.24405782707175,"NAME":"3cross Brewing Company","BREW_TYPE":"Micro","URL_12":"3crossbrewing.com"},"id":106},
{"type":"Feature","geometry":{"type":"Point","coordinates":[-86.47960969799999,30.520446149000065]},"properties":{"OBJECTID":107,"X":-86.47960969790513,"Y":30.520446149056404,"NAME":"3rd Planet Brewing","BREW_TYPE":"Micro","URL_12":"www.facebook.com/3rdplanetbrewing/"},"id":107},
{"type":"Feature","geometry":{"type":"Point","coordinates":[-77.36635355599998,35.06900862200007]},"properties":{"OBJECTID":108,"X":-77.36635355629325,"Y":35.069008621963306,"NAME":"3rd Rock Brewing Company","BREW_TYPE":"Micro","URL_12":"www.3rockbrew.com"},"id":108},
{"type":"Feature","geometry":{"type":"Point","coordinates":[-85.56675625999998,38.19341145900006]},"properties":{"OBJECTID":109,"X":-85.56675625976698,"Y":38.19341145876866,"NAME":"3rd Turn Brewing","BREW_TYPE":"Micro","URL_12":"www.3rdturnbrewing.com"},"id":109},
{"type":"Feature","geometry":{"type":"Point","coordinates":[-75.57420882399998,38.46045996000004]},"properties":{"OBJECTID":110,"X":-75.57420882372351,"Y":38.460459960198,"NAME":"3rd Wave Brewing Co","BREW_TYPE":"Micro","URL_12":"www.3rdwavebrewingco.com"},"id":110},
{"type":"Feature","geometry":{"type":"Point","coordinates":[-93.23991013599999,37.14753447900006]},"properties":{"OBJECTID":111,"X":-93.23991013627446,"Y":37.1475344787926,"NAME":"4 By 4 Brewing Company","BREW_TYPE":"Micro","URL_12":"www.4by4brewingcompany.com"},"id":111},
{"type":"Feature","geometry":{"type":"Point","coordinates":[-90.19792247499998,38.61476003700005]},"properties":{"OBJECTID":112,"X":-90.19792247527283,"Y":38.61476003690353,"NAME":"4 Hands Brewing Co","BREW_TYPE":"Regional","URL_12":""},"id":112},
{"type":"Feature","geometry":{"type":"Point","coordinates":[-105.09860390699998,39.903536029000065]},"properties":{"OBJECTID":113,"X":-105.09860390741144,"Y":39.903536029271415,"NAME":"4 Noses Brewing Company","BREW_TYPE":"Micro","URL_12":"4nosesbrewing.com"},"id":113},
{"type":"Feature","geometry":{"type":"Point","coordinates":[-97.46842126199994,35.257351551000056]},"properties":{"OBJECTID":114,"X":-97.46842126224848,"Y":35.25735155060911,"NAME":"405 Brewing Co","BREW_TYPE":null,"URL_12":null},"id":114},
{"type":"Feature","geometry":{"type":"Point","coordinates":[-111.03603959099996,45.69288348300006]},"properties":{"OBJECTID":115,"X":-111.03603959131448,"Y":45.69288348289062,"NAME":"406 Brewing Company","BREW_TYPE":"Micro","URL_12":"www.406brewingcompany.com"},"id":115},
{"type":"Feature","geometry":{"type":"Point","coordinates":[-80.06188539499999,40.47275632900005]},"properties":{"OBJECTID":116,"X":-80.06188539451222,"Y":40.47275632889948,"NAME":"412 Brews","BREW_TYPE":"Brewpub","URL_12":"www.412brews.com"},"id":116},
{"type":"Feature","geometry":{"type":"Point","coordinates":[-78.60797445799994,42.76855954900003]},"properties":{"OBJECTID":117,"X":-78.60797445808073,"Y":42.76855954922072,"NAME":"42 North Brewing Company","BREW_TYPE":"Brewpub","URL_12":"www.42northbrewing.com"},"id":117},
{"type":"Feature","geometry":{"type":"Point","coordinates":[-85.83186999999998,39.26828000000006]},"properties":{"OBJECTID":118,"X":-85.83186999999998,"Y":39.26828000000006,"NAME":"450 North Brewing Company @ Simmons Winery","BREW_TYPE":"Brewpub","URL_12":"www.450northbrewing.com"},"id":118},
{"type":"Feature","geometry":{"type":"Point","coordinates":[-122.41388878999999,37.644328855000026]},"properties":{"OBJECTID":119,"X":-122.41388878971694,"Y":37.644328855387,"NAME":"47 Hills Brewing Co","BREW_TYPE":"Brewpub","URL_12":"47hillsbrewingcompany.com"},"id":119},
{"type":"Feature","geometry":{"type":"Point","coordinates":[-148.23858634299998,63.907475000000034]},"properties":{"OBJECTID":120,"X":-148.23858634299998,"Y":63.907475000000034,"NAME":"49th State Brewing Co","BREW_TYPE":"Brewpub","URL_12":""},"id":120},
{"type":"Feature","geometry":{"type":"Point","coordinates":[-149.89609349999998,61.21955346800007]},"properties":{"OBJECTID":121,"X":-149.8960935,"Y":61.21955346768412,"NAME":"49th State Brewing Co - Anchorage","BREW_TYPE":"Brewpub","URL_12":"www.49statebrewing.com/"},"id":121},
{"type":"Feature","geometry":{"type":"Point","coordinates":[-107.92575013599998,38.90064455500004]},"properties":{"OBJECTID":122,"X":-107.92575013627446,"Y":38.90064455453292,"NAME":"4B's Brewery","BREW_TYPE":"Brewpub","URL_12":"www.4bsbrewery.com"},"id":122},
{"type":"Feature","geometry":{"type":"Point","coordinates":[-84.34174441499994,41.29215309400007]},"properties":{"OBJECTID":123,"X":-84.34174441494396,"Y":41.292153093542545,"NAME":"4kd Crick Brewery","BREW_TYPE":"Brewpub","URL_12":"Www.4kdcrickbrewery.com"},"id":123},
{"type":"Feature","geometry":{"type":"Point","coordinates":[-97.71229535699996,30.385360112000058]},"properties":{"OBJECTID":124,"X":-97.71229535703178,"Y":30.385360111835762,"NAME":"4th Tap Brewing Cooperative","BREW_TYPE":"Micro","URL_12":""},"id":124},
{"type":"Feature","geometry":{"type":"Point","coordinates":[-85.70659131899998,42.724965213000075]},"properties":{"OBJECTID":125,"X":-85.70659131871858,"Y":42.72496521344224,"NAME":"5 Lakes Brewing Co.","BREW_TYPE":"Brewpub","URL_12":"www.5lakesbrewing.com"},"id":125},
{"type":"Feature","geometry":{"type":"Point","coordinates":[-87.77960413799997,41.75758044300005]},"properties":{"OBJECTID":126,"X":-87.77960413780367,"Y":41.757580442725796,"NAME":"5 Rabbit Cerveceria Inc","BREW_TYPE":"Micro","URL_12":"www.5rabbitbrewery.com"},"id":126},
{"type":"Feature","geometry":{"type":"Point","coordinates":[-122.13616997199995,48.03744053200006]},"properties":{"OBJECTID":127,"X":-122.13616997155057,"Y":48.0374405323159,"NAME":"5 Rights Brewing Co","BREW_TYPE":"Micro","URL_12":"www.5rightsbrewing.com"},"id":127},
{"type":"Feature","geometry":{"type":"Point","coordinates":[-84.37878455099997,33.90882174300003]},"properties":{"OBJECTID":128,"X":-84.37878455081065,"Y":33.90882174271452,"NAME":"5 Seasons Brewing Co - Prado","BREW_TYPE":"Brewpub","URL_12":"www.5seasonsbrewing.com"},"id":128},
{"type":"Feature","geometry":{"type":"Point","coordinates":[-84.41036001199996,33.779089922000026]},"properties":{"OBJECTID":129,"X":-84.41036001168537,"Y":33.77908992224053,"NAME":"5 Seasons Brewing Co - Westside","BREW_TYPE":"Brewpub","URL_12":"www.5seasonsbrewing.com"},"id":129},
{"type":"Feature","geometry":{"type":"Point","coordinates":[-98.25912276299994,29.59678483700003]},"properties":{"OBJECTID":130,"X":-98.25912276253693,"Y":29.596784836516882,"NAME":"5 Stones Artisan Brewery","BREW_TYPE":"Micro","URL_12":""},"id":130},
{"type":"Feature","geometry":{"type":"Point","coordinates":[-97.76959281099994,30.223619635000034]},"properties":{"OBJECTID":131,"X":-97.76959281086609,"Y":30.223619635005047,"NAME":"512 Brewing Co","BREW_TYPE":null,"URL_12":null},"id":131},
{"type":"Feature","geometry":{"type":"Point","coordinates":[-93.72277349999996,41.600351517000036]},"properties":{"OBJECTID":132,"X":-93.7227735,"Y":41.60035151731225,"NAME":"515 Brewing Co","BREW_TYPE":"Micro","URL_12":"www.515brewing.com"},"id":132},
{"type":"Feature","geometry":{"type":"Point","coordinates":[-121.20871338599994,38.802237526000056]},"properties":{"OBJECTID":133,"X":-121.20871338634657,"Y":38.80223752611309,"NAME":"5150 Brewing At The Brass Tap Rocklin","BREW_TYPE":"Micro","URL_12":"www.brasstaprocklin.com"},"id":133},
{"type":"Feature","geometry":{"type":"Point","coordinates":[-88.08809041799998,45.80798223200003]},"properties":{"OBJECTID":134,"X":-88.08809041760152,"Y":45.807982231541736,"NAME":"51st State Brewing Company","BREW_TYPE":"Brewpub","URL_12":"www.51ststatebrewingcompany.com"},"id":134},
{"type":"Feature","geometry":{"type":"Point","coordinates":[-87.98119519099998,41.80446987000005]},"properties":{"OBJECTID":135,"X":-87.9811951906058,"Y":41.80446986955394,"NAME":"51st Ward Beer Company","BREW_TYPE":"Contract","URL_12":""},"id":135},
{"type":"Feature","geometry":{"type":"Point","coordinates":[-122.32726733599998,45.564483205000045]},"properties":{"OBJECTID":136,"X":-122.32726733579572,"Y":45.564483204570266,"NAME":"54-40 Brewing Company","BREW_TYPE":"Micro","URL_12":"www.54-40brewing.com"},"id":136},
{"type":"Feature","geometry":{"type":"Point","coordinates":[-107.99460178199996,36.821184662000064]},"properties":{"OBJECTID":137,"X":-107.99460178183975,"Y":36.82118466224237,"NAME":"550 Brewing","BREW_TYPE":"Proprietor","URL_12":"Www.550brew.com"},"id":137},
{"type":"Feature","geometry":{"type":"Point","coordinates":[-119.70174183499995,36.82523850000007]},"properties":{"OBJECTID":138,"X":-119.70174183527612,"Y":36.82523849956732,"NAME":"559 Local Brewing","BREW_TYPE":"Micro","URL_12":"www.fresnobrewingcompany.com"},"id":138},
{"type":"Feature","geometry":{"type":"Point","coordinates":[-93.27284364999997,45.02367900000007]},"properties":{"OBJECTID":139,"X":-93.27284365009561,"Y":45.023679000000016,"NAME":"56 Brewing","BREW_TYPE":"Micro","URL_12":"www.56brewing.com"},"id":139},
{"type":"Feature","geometry":{"type":"Point","coordinates":[-85.27284005099995,43.17732005200003]},"properties":{"OBJECTID":140,"X":-85.27284005107043,"Y":43.17732005222433,"NAME":"57 Brew Pub &  Bistro","BREW_TYPE":null,"URL_12":null},"id":140},
{"type":"Feature","geometry":{"type":"Point","coordinates":[-77.51350757099993,38.362373277000074]},"properties":{"OBJECTID":141,"X":-77.5135075708346,"Y":38.362373276992315,"NAME":"6 Bears &  A Goat Brewing Company, LLC","BREW_TYPE":null,"URL_12":null},"id":141},
{"type":"Feature","geometry":{"type":"Point","coordinates":[-73.86790006199993,41.15875008100005]},"properties":{"OBJECTID":142,"X":-73.86790006217892,"Y":41.15875008050088,"NAME":"6 Degrees of Separation","BREW_TYPE":"Brewpub","URL_12":"www.6degreesbp.com"},"id":142},
{"type":"Feature","geometry":{"type":"Point","coordinates":[-71.36469204199994,42.91492769200005]},"properties":{"OBJECTID":143,"X":-71.36469204192385,"Y":42.914927691932554,"NAME":"603 Brewery","BREW_TYPE":"Micro","URL_12":"www.603brewery.com"},"id":143},
{"type":"Feature","geometry":{"type":"Point","coordinates":[-93.24670049999997,44.998770497000066]},"properties":{"OBJECTID":144,"X":-93.2467005,"Y":44.99877049711448,"NAME":"612 Brew","BREW_TYPE":"Micro","URL_12":"www.612brew.com"},"id":144},
{"type":"Feature","geometry":{"type":"Point","coordinates":[-124.21465999999998,43.366550000000075]},"properties":{"OBJECTID":145,"X":-124.21465999999998,"Y":43.366550000000075,"NAME":"7 Devils Brewing Co","BREW_TYPE":"Brewpub","URL_12":"www.7devilsbrewery.com"},"id":145},
{"type":"Feature","geometry":{"type":"Point","coordinates":[-106.82835199999994,39.65802000000008]},"properties":{"OBJECTID":146,"X":-106.82835199999997,"Y":39.65802000000005,"NAME":"7 Hermits Brewing Company","BREW_TYPE":"Brewpub","URL_12":"www.7hermitsbrewing.com"},"id":146},
{"type":"Feature","geometry":{"type":"Point","coordinates":[-90.66345491199996,42.504575533000036]},"properties":{"OBJECTID":147,"X":-90.66345491204537,"Y":42.50457553327838,"NAME":"7 Hills Brewing Company","BREW_TYPE":"Brewpub","URL_12":"www.7hillsbrew.com"},"id":147},
{"type":"Feature","geometry":{"type":"Point","coordinates":[-77.11011117199996,39.05581693600004]},"properties":{"OBJECTID":148,"X":-77.11011117236993,"Y":39.05581693591647,"NAME":"7 Locks Brewing","BREW_TYPE":"Micro","URL_12":"www.7locksbrewing.com"},"id":148},
{"type":"Feature","geometry":{"type":"Point","coordinates":[-74.76133399999998,39.05217600000003]},"properties":{"OBJECTID":149,"X":-74.76133399999996,"Y":39.05217600000006,"NAME":"7 Mile Brewery","BREW_TYPE":"Micro","URL_12":"www.7milebrew.com"},"id":149},
{"type":"Feature","geometry":{"type":"Point","coordinates":[-122.43918160199996,47.24174736700007]},"properties":{"OBJECTID":150,"X":-122.439181601968,"Y":47.24174736663974,"NAME":"7 Seas Brewing Co","BREW_TYPE":"Micro","URL_12":"www.7seasbrewing.com"},"id":150},
{"type":"Feature","geometry":{"type":"Point","coordinates":[-79.74878069099998,42.24927034400008]},"properties":{"OBJECTID":151,"X":-79.7487806905189,"Y":42.24927034358602,"NAME":"7 Sins Brewery","BREW_TYPE":"Micro","URL_12":"www.7sinsbrewery.com"},"id":151},
{"type":"Feature","geometry":{"type":"Point","coordinates":[-120.66964060899994,35.24673799900006]},"properties":{"OBJECTID":152,"X":-120.66964060853064,"Y":35.24673799917718,"NAME":"7 Sisters Brewing Co","BREW_TYPE":"Brewpub","URL_12":"www.7sistersbrewing.com"},"id":152},
{"type":"Feature","geometry":{"type":"Point","coordinates":[-88.73099995599995,37.15422995200004]},"properties":{"OBJECTID":153,"X":-88.73099995556596,"Y":37.15422995224785,"NAME":"718BrewCafe, LLP","BREW_TYPE":"Brewpub","URL_12":"www.718BrewCafe.com"},"id":153},
{"type":"Feature","geometry":{"type":"Point","coordinates":[-70.87502999999998,43.19497000000007]},"properties":{"OBJECTID":154,"X":-70.87502999999998,"Y":43.19497000000007,"NAME":"7th Settlement Brewery","BREW_TYPE":"Brewpub","URL_12":"www.7thsettlement.com"},"id":154},
{"type":"Feature","geometry":{"type":"Point","coordinates":[-71.32657596499996,42.193627132000074]},"properties":{"OBJECTID":155,"X":-71.32657596514434,"Y":42.19362713229334,"NAME":"7th Wave Brewing","BREW_TYPE":"Micro","URL_12":"www.7thwavebrewing.com"},"id":155},
{"type":"Feature","geometry":{"type":"Point","coordinates":[-82.78989549199997,28.016608526000027]},"properties":{"OBJECTID":156,"X":-82.78989549195511,"Y":28.016608525871032,"NAME":"7venth Sun Brewery","BREW_TYPE":"Micro","URL_12":"www.7venthsun.com"},"id":156},
{"type":"Feature","geometry":{"type":"Point","coordinates":[-82.45127238999999,28.009989000000076]},"properties":{"OBJECTID":157,"X":-82.45127239029996,"Y":28.009989000000004,"NAME":"7venth Sun Tampa","BREW_TYPE":"Micro","URL_12":""},"id":157},
{"type":"Feature","geometry":{"type":"Point","coordinates":[-117.17599007799998,33.530309930000044]},"properties":{"OBJECTID":158,"X":-117.17599007775948,"Y":33.53030993003081,"NAME":"8 Bit Brewing Company","BREW_TYPE":"Brewpub","URL_12":"www.8bitbrewerycompany.com"},"id":158},
{"type":"Feature","geometry":{"type":"Point","coordinates":[-82.51987284499995,27.893492090000052]},"properties":{"OBJECTID":159,"X":-82.51987284479432,"Y":27.893492089539077,"NAME":"81Bay Brewing Company","BREW_TYPE":"Micro","URL_12":"81baybrewco.com"},"id":159},
{"type":"Feature","geometry":{"type":"Point","coordinates":[-88.71258708799996,42.83206271700004]},"properties":{"OBJECTID":160,"X":-88.71258708800262,"Y":42.83206271712197,"NAME":"841 Brewhouse","BREW_TYPE":"Brewpub","URL_12":""},"id":160},
{"type":"Feature","geometry":{"type":"Point","coordinates":[-112.32386294299994,33.45349717900007]},"properties":{"OBJECTID":161,"X":-112.32386294275352,"Y":33.453497178746574,"NAME":"8-Bit Aleworks","BREW_TYPE":"Micro","URL_12":"www.8-bitaleworks.com"},"id":161},
{"type":"Feature","geometry":{"type":"Point","coordinates":[-118.58861674299999,34.23328483300003]},"properties":{"OBJECTID":162,"X":-118.5886167430404,"Y":34.23328483303812,"NAME":"8one8 Brewing Company","BREW_TYPE":"Micro","URL_12":"www.818brewing.com"},"id":162},
{"type":"Feature","geometry":{"type":"Point","coordinates":[-87.71296008099995,43.75726000000003]},"properties":{"OBJECTID":163,"X":-87.71296008107768,"Y":43.75726000000003,"NAME":"8th Street Ale Haus","BREW_TYPE":"Brewpub","URL_12":"www.sheboyganalehaus.com"},"id":163},
{"type":"Feature","geometry":{"type":"Point","coordinates":[-95.35565539099997,29.749120754000046]},"properties":{"OBJECTID":164,"X":-95.3556553909342,"Y":29.749120754082824,"NAME":"8th Wonder Brewery","BREW_TYPE":"Micro","URL_12":"www.8thwonderbrew.com"},"id":164},
{"type":"Feature","geometry":{"type":"Point","coordinates":[-96.60696378699998,33.617880709000076]},"properties":{"OBJECTID":165,"X":-96.60696378669846,"Y":33.61788070860727,"NAME":"903 Brewers","BREW_TYPE":"Micro","URL_12":"www.903brewers.com"},"id":165},
{"type":"Feature","geometry":{"type":"Point","coordinates":[-121.09869868199996,35.566641513000036]},"properties":{"OBJECTID":166,"X":-121.09869868232458,"Y":35.56664151318598,"NAME":"927 Beer Company","BREW_TYPE":"Micro","URL_12":"www.cambriabeerco.com"},"id":166},
{"type":"Feature","geometry":{"type":"Point","coordinates":[-81.65466919099998,30.310668000000078]},"properties":{"OBJECTID":167,"X":-81.65466919147119,"Y":30.310668000000007,"NAME":"Aardwolf Brewing Company","BREW_TYPE":"Micro","URL_12":"www.aardwolfbrewing.com"},"id":167},
{"type":"Feature","geometry":{"type":"Point","coordinates":[-77.10526510199998,42.63064247600005]},"properties":{"OBJECTID":168,"X":-77.10526510248667,"Y":42.63064247619461,"NAME":"Abandon Brewing","BREW_TYPE":"Micro","URL_12":"www.abandonbrewing.com"},"id":168},
{"type":"Feature","geometry":{"type":"Point","coordinates":[-72.66132866999999,42.27431390100003]},"properties":{"OBJECTID":169,"X":-72.66132867040803,"Y":42.27431390112,"NAME":"Abandoned Building Brewery","BREW_TYPE":"Micro","URL_12":"www.abandonedbuildingbrewery.com"},"id":169},
{"type":"Feature","geometry":{"type":"Point","coordinates":[-80.14013999999997,25.788940000000025]},"properties":{"OBJECTID":170,"X":-80.14013999999997,"Y":25.788940000000025,"NAME":"Abbey Brewing Co","BREW_TYPE":"Contract","URL_12":""},"id":170},
{"type":"Feature","geometry":{"type":"Point","coordinates":[-105.95847049999998,35.65468500000003]},"properties":{"OBJECTID":171,"X":-105.95847049999996,"Y":35.65468500000006,"NAME":"Abbey Brewing Company, LLC","BREW_TYPE":"Micro","URL_12":"www.abbeybrewing.biz"},"id":171},
{"type":"Feature","geometry":{"type":"Point","coordinates":[-84.32186269999994,34.04750996300004]},"properties":{"OBJECTID":172,"X":-84.32186269978106,"Y":34.04750996306781,"NAME":"Abbey of the Holy Goats","BREW_TYPE":"Micro","URL_12":"www.abbeyoftheholygoats.com"},"id":172},
{"type":"Feature","geometry":{"type":"Point","coordinates":[-83.93092453199995,42.607548671000075]},"properties":{"OBJECTID":173,"X":-83.93092453200389,"Y":42.607548671178726,"NAME":"Aberrant Ales","BREW_TYPE":"Brewpub","URL_12":"www.aberrantales.com"},"id":173},
{"type":"Feature","geometry":{"type":"Point","coordinates":[-84.76350294499997,33.40022400000004]},"properties":{"OBJECTID":174,"X":-84.76350294535153,"Y":33.40022400000001,"NAME":"Abide Brewing Company","BREW_TYPE":"Micro","URL_12":"www.abidebrewing.com"},"id":174},
{"type":"Feature","geometry":{"type":"Point","coordinates":[-118.39935004099999,33.863289982000026]},"properties":{"OBJECTID":175,"X":-118.39935004053883,"Y":33.863289981678186,"NAME":"Abigaile","BREW_TYPE":"Brewpub","URL_12":"abigailrestaurant.com"},"id":175},
{"type":"Feature","geometry":{"type":"Point","coordinates":[-90.05547047399995,30.481498074000058]},"properties":{"OBJECTID":176,"X":-90.05547047385635,"Y":30.481498074245433,"NAME":"Abita Brewing Co","BREW_TYPE":"Regional","URL_12":"www.abita.com"},"id":176},
{"type":"Feature","geometry":{"type":"Point","coordinates":[-80.07259205199995,40.47187362600005]},"properties":{"OBJECTID":177,"X":-80.07259205202274,"Y":40.47187362643538,"NAME":"Abjuration Brewing","BREW_TYPE":"Micro","URL_12":"www.abjurationbrewing.com"},"id":177},
{"type":"Feature","geometry":{"type":"Point","coordinates":[-115.32896175399998,36.141375554000035]},"properties":{"OBJECTID":178,"X":-115.32896175382302,"Y":36.141375553955974,"NAME":"Able Baker Brewing","BREW_TYPE":"Micro","URL_12":"www.ablebakerbrewing.com"},"id":178},
{"type":"Feature","geometry":{"type":"Point","coordinates":[-71.49332846899995,42.852613286000064]},"properties":{"OBJECTID":179,"X":-71.49332846930022,"Y":42.852613285590664,"NAME":"Able Ebenezer Brewing Company","BREW_TYPE":"Micro","URL_12":"www.ableebenezer.com"},"id":179},
{"type":"Feature","geometry":{"type":"Point","coordinates":[-93.25116715599995,44.999002748000066]},"properties":{"OBJECTID":180,"X":-93.25116715641556,"Y":44.99900274757427,"NAME":"Able Seedhouse and Brewery","BREW_TYPE":"Micro","URL_12":"www.ablebeer.com"},"id":180},
{"type":"Feature","geometry":{"type":"Point","coordinates":[-85.81069489999999,43.686221200000034]},"properties":{"OBJECTID":181,"X":-85.81069489999999,"Y":43.686221200000034,"NAME":"Abner's Restaurant Inc / Northern Michigan Beer","BREW_TYPE":"Brewpub","URL_12":""},"id":181},
{"type":"Feature","geometry":{"type":"Point","coordinates":[-117.08542401599999,33.02379999500005]},"properties":{"OBJECTID":182,"X":-117.08542401612883,"Y":33.02379999500834,"NAME":"Abnormal Beer Company","BREW_TYPE":"Brewpub","URL_12":""},"id":182},
{"type":"Feature","geometry":{"type":"Point","coordinates":[-77.86094185299999,39.288702458000046]},"properties":{"OBJECTID":183,"X":-77.86094185261703,"Y":39.28870245822039,"NAME":"Abolitionist Ale Works","BREW_TYPE":"Brewpub","URL_12":"www.abolitionistaleworks.com"},"id":183},
{"type":"Feature","geometry":{"type":"Point","coordinates":[-84.01585666799997,35.93155135300003]},"properties":{"OBJECTID":184,"X":-84.01585666775364,"Y":35.93155135304973,"NAME":"Abridged Beer Company","BREW_TYPE":"Brewpub","URL_12":"www.abridgedbeer.com"},"id":184},
{"type":"Feature","geometry":{"type":"Point","coordinates":[-118.33791372299999,33.84414250100008]},"properties":{"OBJECTID":185,"X":-118.33791372300769,"Y":33.844142501154785,"NAME":"Absolution Brewing Co","BREW_TYPE":"Micro","URL_12":"www.absolutionbrewingcompany.com"},"id":185},
{"type":"Feature","geometry":{"type":"Point","coordinates":[-117.27398162799994,32.84081536900004]},"properties":{"OBJECTID":186,"X":-117.27398162825303,"Y":32.8408153694097,"NAME":"Absolution By the Sea","BREW_TYPE":"Brewpub","URL_12":""},"id":186},
{"type":"Feature","geometry":{"type":"Point","coordinates":[-104.81428981799996,41.13200173100006]},"properties":{"OBJECTID":187,"X":-104.81428981833925,"Y":41.13200173131757,"NAME":"Accomplice Beer Company","BREW_TYPE":"Brewpub","URL_12":"www.accomplicebeer.com"},"id":187},
{"type":"Feature","geometry":{"type":"Point","coordinates":[-105.10432881599996,39.59384900200007]},"properties":{"OBJECTID":188,"X":-105.10432881556241,"Y":39.593849002152695,"NAME":"Acidulous Brewing Company","BREW_TYPE":"Contract","URL_12":""},"id":188},
{"type":"Feature","geometry":{"type":"Point","coordinates":[-98.08910058099997,30.19273854000005]},"properties":{"OBJECTID":189,"X":-98.08910058090484,"Y":30.192738539529255,"NAME":"Acopon Brewing Co","BREW_TYPE":"Micro","URL_12":"www.acoponbrewing.com"},"id":189},
{"type":"Feature","geometry":{"type":"Point","coordinates":[-117.18459730499995,32.74251091900004]},"properties":{"OBJECTID":190,"X":-117.18459730464635,"Y":32.742510918588266,"NAME":"Acoustic Ales Brewing Experiment","BREW_TYPE":"Micro","URL_12":"www.acousticales.com"},"id":190},
{"type":"Feature","geometry":{"type":"Point","coordinates":[-82.90714344299994,39.98614056300005]},"properties":{"OBJECTID":191,"X":-82.90714344304291,"Y":39.98614056347702,"NAME":"Actual Brewing Company, LLC","BREW_TYPE":"Micro","URL_12":"wwww.actualbeer.com"},"id":191},
{"type":"Feature","geometry":{"type":"Point","coordinates":[-121.97080000799997,47.856040000000064]},"properties":{"OBJECTID":192,"X":-121.97080000779023,"Y":47.856040000000064,"NAME":"Adam's Northwest Bistro / Twin Rivers Brewing","BREW_TYPE":"Brewpub","URL_12":"www.adamsnwbistro.com"},"id":192},
{"type":"Feature","geometry":{"type":"Point","coordinates":[-97.72082407599999,30.382336225000074]},"properties":{"OBJECTID":193,"X":-97.72082407562472,"Y":30.382336224825348,"NAME":"Adelbert's Brewery LLC","BREW_TYPE":"Micro","URL_12":"www.adelbertsbeer.com"},"id":193},
{"type":"Feature","geometry":{"type":"Point","coordinates":[-73.71358003799998,43.418619996000075]},"properties":{"OBJECTID":194,"X":-73.71358003779754,"Y":43.418619996104916,"NAME":"Adirondack Pub and Brewery","BREW_TYPE":"Micro","URL_12":"www.adkpub.com"},"id":194},
{"type":"Feature","geometry":{"type":"Point","coordinates":[-75.47568082299995,44.33131407800005]},"properties":{"OBJECTID":195,"X":-75.47568082331347,"Y":44.33131407795226,"NAME":"Adirondack Toboggan Company Microbrewery","BREW_TYPE":"Micro","URL_12":"www.adktoboggan.net"},"id":195},
{"type":"Feature","geometry":{"type":"Point","coordinates":[-77.00998049999998,38.89705500000008]},"properties":{"OBJECTID":196,"X":-77.0099805,"Y":38.897054999999995,"NAME":"AdMerk Corp. Inc.","BREW_TYPE":"Contract","URL_12":"www.paugustin.com"},"id":196},
{"type":"Feature","geometry":{"type":"Point","coordinates":[-122.53553920199994,38.07357308500008]},"properties":{"OBJECTID":197,"X":-122.53553920180029,"Y":38.07357308546383,"NAME":"Adobe Creek Brewing Company","BREW_TYPE":"Micro","URL_12":"www.adobecreekbrewing.com"},"id":197},
{"type":"Feature","geometry":{"type":"Point","coordinates":[-77.72083756799998,39.14389786400005]},"properties":{"OBJECTID":198,"X":-77.72083756835404,"Y":39.143897863725556,"NAME":"Adroit Theory Brewing Company","BREW_TYPE":"Micro","URL_12":"www.adroit-theory.com"},"id":198},
{"type":"Feature","geometry":{"type":"Point","coordinates":[-77.44091416999999,38.383910419000074]},"properties":{"OBJECTID":199,"X":-77.44091417037936,"Y":38.38391041915247,"NAME":"Adventure Brewing Co","BREW_TYPE":"Micro","URL_12":"www.adventurebrewing.com"},"id":199},
{"type":"Feature","geometry":{"type":"Point","coordinates":[-77.44802465599997,38.28014302400004]},"properties":{"OBJECTID":200,"X":-77.44802465569285,"Y":38.28014302412158,"NAME":"Adventure South","BREW_TYPE":"Brewpub","URL_12":"www.adventurebrewing.com"},"id":200},
{"type":"Feature","geometry":{"type":"Point","coordinates":[-97.35065772399997,37.68465566500004]},"properties":{"OBJECTID":201,"X":-97.35065772387307,"Y":37.68465566472388,"NAME":"Aero Plains Brewing","BREW_TYPE":"Micro","URL_12":"www.aeroplainsbrewing.com"},"id":201},
{"type":"Feature","geometry":{"type":"Point","coordinates":[-71.10511568699997,42.38164789800004]},"properties":{"OBJECTID":202,"X":-71.10511568731572,"Y":42.38164789758769,"NAME":"Aeronaut Brewing Company","BREW_TYPE":"Micro","URL_12":"www.aeronautbrewing.com"},"id":202},
{"type":"Feature","geometry":{"type":"Point","coordinates":[-117.14499968499996,33.488059777000046]},"properties":{"OBJECTID":203,"X":-117.14499968521012,"Y":33.488059776588294,"NAME":"Aftershock Brewing Co","BREW_TYPE":"Micro","URL_12":"www.aftershockbrewingco.com"},"id":203},
{"type":"Feature","geometry":{"type":"Point","coordinates":[-88.02225079999994,41.90545523900005]},"properties":{"OBJECTID":204,"X":-88.02225079981945,"Y":41.90545523861708,"NAME":"Afterthought Brewing Company","BREW_TYPE":"Micro","URL_12":"afterthoughtbrewing.com"},"id":204},
{"type":"Feature","geometry":{"type":"Point","coordinates":[-85.74561995599998,38.25544005900008]},"properties":{"OBJECTID":205,"X":-85.7456199561429,"Y":38.25544005886076,"NAME":"Against the Grain Brewery","BREW_TYPE":"Micro","URL_12":"atgbrewery.com"},"id":205},
{"type":"Feature","geometry":{"type":"Point","coordinates":[-85.77659051299997,38.26596266900003]},"properties":{"OBJECTID":206,"X":-85.77659051347443,"Y":38.26596266887881,"NAME":"Against the Grain Production Facility","BREW_TYPE":"Micro","URL_12":""},"id":206},
{"type":"Feature","geometry":{"type":"Point","coordinates":[-123.12930235399995,44.189015476000066]},"properties":{"OBJECTID":207,"X":-123.12930235359799,"Y":44.189015475617694,"NAME":"Agrarian Ales, LLC","BREW_TYPE":"Micro","URL_12":"www.agales.com"},"id":207},
{"type":"Feature","geometry":{"type":"Point","coordinates":[-87.47864164299995,44.65595700000006]},"properties":{"OBJECTID":208,"X":-87.47864164288131,"Y":44.655957,"NAME":"Ahnapee Brewery","BREW_TYPE":"Micro","URL_12":"www.ahnapeebrewery.com"},"id":208},
{"type":"Feature","geometry":{"type":"Point","coordinates":[-71.46852728199997,42.98990550800005]},"properties":{"OBJECTID":209,"X":-71.46852728175284,"Y":42.989905508194326,"NAME":"Aigean Ales","BREW_TYPE":"Micro","URL_12":""},"id":209},
{"type":"Feature","geometry":{"type":"Point","coordinates":[-81.72291998099996,33.56033996300005]},"properties":{"OBJECTID":210,"X":-81.7229199811012,"Y":33.560339963356306,"NAME":"Aiken Brewing Co","BREW_TYPE":"Brewpub","URL_12":"www.aikenbrewingcompany.com"},"id":210},
{"type":"Feature","geometry":{"type":"Point","coordinates":[-68.36621055999996,44.83192254700003]},"properties":{"OBJECTID":211,"X":-68.36621055970139,"Y":44.831922546522186,"NAME":"Airline Brewing Company","BREW_TYPE":"Micro","URL_12":"www.abcmaine.beer"},"id":211},
{"type":"Feature","geometry":{"type":"Point","coordinates":[-122.22467974899996,47.41204154600007]},"properties":{"OBJECTID":212,"X":-122.22467974854291,"Y":47.41204154616571,"NAME":"Airways Brewing Co","BREW_TYPE":"Micro","URL_12":"www.airwaysbrewing.com"},"id":212},
{"type":"Feature","geometry":{"type":"Point","coordinates":[-83.47082969699994,33.941966164000064]},"properties":{"OBJECTID":213,"X":-83.47082969729956,"Y":33.94196616431985,"NAME":"Akademia Brewing Company","BREW_TYPE":"Brewpub","URL_12":"www.AkademiaBC.com"},"id":213},
{"type":"Feature","geometry":{"type":"Point","coordinates":[-85.73548074099995,38.25295041700008]},"properties":{"OBJECTID":214,"X":-85.7354807411853,"Y":38.25295041661367,"NAME":"Akasha Brewing Company","BREW_TYPE":"Micro","URL_12":"www.akashabrewing.com"},"id":214},
{"type":"Feature","geometry":{"type":"Point","coordinates":[-122.61365197399999,45.54830346800003]},"properties":{"OBJECTID":215,"X":-122.61365197446477,"Y":45.54830346768411,"NAME":"Alameda Brewing Co","BREW_TYPE":"Micro","URL_12":"www.alamedabrewing.com"},"id":215},
{"type":"Feature","geometry":{"type":"Point","coordinates":[-122.61365197399999,45.54830346800003]},"properties":{"OBJECTID":216,"X":-122.61365197446477,"Y":45.54830346768411,"NAME":"Alameda Brewing Co","BREW_TYPE":"Micro","URL_12":""},"id":216},
{"type":"Feature","geometry":{"type":"Point","coordinates":[-122.64146478599997,45.48916783200008]},"properties":{"OBJECTID":217,"X":-122.64146478596604,"Y":45.48916783236194,"NAME":"Alameda Brewing Co","BREW_TYPE":"Micro","URL_12":"www.alamedabrewing.com"},"id":217},
{"type":"Feature","geometry":{"type":"Point","coordinates":[-122.64146478599997,45.48916783200008]},"properties":{"OBJECTID":218,"X":-122.64146478596604,"Y":45.48916783236194,"NAME":"Alameda Brewing Co","BREW_TYPE":"Micro","URL_12":""},"id":218},
{"type":"Feature","geometry":{"type":"Point","coordinates":[-122.23909014399999,37.76858695200008]},"properties":{"OBJECTID":219,"X":-122.23909014374763,"Y":37.76858695224778,"NAME":"Alameda Island Brewing Company","BREW_TYPE":"Micro","URL_12":"www.alamedaislandbrewingcompany.com"},"id":219},
{"type":"Feature","geometry":{"type":"Point","coordinates":[-98.47758111199994,29.428943489000062]},"properties":{"OBJECTID":220,"X":-98.47758111226844,"Y":29.428943489324187,"NAME":"Alamo Beer Co","BREW_TYPE":"Micro","URL_12":"www.alamobeer.com"},"id":220},
{"type":"Feature","geometry":{"type":"Point","coordinates":[-87.73104255599998,41.99007754300004]},"properties":{"OBJECTID":221,"X":-87.7310425555425,"Y":41.99007754284747,"NAME":"Alarmist Brewing Co","BREW_TYPE":"Micro","URL_12":"alarmistbrewing.com"},"id":221},
{"type":"Feature","geometry":{"type":"Point","coordinates":[-134.48898999999994,58.35673001200007]},"properties":{"OBJECTID":222,"X":-134.48898999999994,"Y":58.356730011685485,"NAME":"Alaskan Brewing Co.","BREW_TYPE":"Regional","URL_12":"www.alaskanbeer.com"},"id":222},
{"type":"Feature","geometry":{"type":"Point","coordinates":[-92.80783349999996,41.027150504000076]},"properties":{"OBJECTID":223,"X":-92.8078335,"Y":41.027150503750924,"NAME":"Albia Brewing Co","BREW_TYPE":"Brewpub","URL_12":"www.albiabrewingcompany.blogspot.com"},"id":223},
{"type":"Feature","geometry":{"type":"Point","coordinates":[-72.74375921399997,44.35072288200007]},"properties":{"OBJECTID":224,"X":-72.74375921371684,"Y":44.350722882018744,"NAME":"Alchemist Cannery","BREW_TYPE":"Micro","URL_12":"www.alchemistbeer.com"},"id":224},
{"type":"Feature","geometry":{"type":"Point","coordinates":[-76.97650666199996,39.790722050000056]},"properties":{"OBJECTID":225,"X":-76.97650666227102,"Y":39.790722050493535,"NAME":"Aldus Brewing Company","BREW_TYPE":"Micro","URL_12":"www.aldusbrewing.com"},"id":225},
{"type":"Feature","geometry":{"type":"Point","coordinates":[-89.35298005299995,43.12060001800006]},"properties":{"OBJECTID":226,"X":-89.35298005337809,"Y":43.1206000183219,"NAME":"Ale Asylum","BREW_TYPE":"Regional","URL_12":"www.aleasylum.com"},"id":226},
{"type":"Feature","geometry":{"type":"Point","coordinates":[-121.89998988899998,37.26202015900003]},"properties":{"OBJECTID":227,"X":-121.89998988853961,"Y":37.26202015903972,"NAME":"Ale House Brewing Co","BREW_TYPE":"Micro","URL_12":""},"id":227},
{"type":"Feature","geometry":{"type":"Point","coordinates":[-122.22790339399995,37.775813965000054]},"properties":{"OBJECTID":228,"X":-122.22790339372091,"Y":37.77581396475099,"NAME":"Ale Industries","BREW_TYPE":"Micro","URL_12":"www.aleindustries.com"},"id":228},
{"type":"Feature","geometry":{"type":"Point","coordinates":[-106.36626879999994,35.12259360000007]},"properties":{"OBJECTID":229,"X":-106.36626879999994,"Y":35.12259360000007,"NAME":"Ale Republic","BREW_TYPE":"Micro","URL_12":"www.alerepublic.com"},"id":229},
{"type":"Feature","geometry":{"type":"Point","coordinates":[-122.43877269999996,48.256982665000066]},"properties":{"OBJECTID":230,"X":-122.43877269986798,"Y":48.256982664723864,"NAME":"Ale Spike","BREW_TYPE":"Micro","URL_12":""},"id":230},
{"type":"Feature","geometry":{"type":"Point","coordinates":[-87.74293994299995,41.94095371700007]},"properties":{"OBJECTID":231,"X":-87.74293994312983,"Y":41.9409537171793,"NAME":"Aleman Brewing","BREW_TYPE":"Micro","URL_12":"www.alemanchicago.com"},"id":231},
{"type":"Feature","geometry":{"type":"Point","coordinates":[-78.16549454199998,39.18453571300006]},"properties":{"OBJECTID":232,"X":-78.16549454166403,"Y":39.18453571302437,"NAME":"Alesatian Brewing Co.","BREW_TYPE":"Brewpub","URL_12":"www.alesatianbrewing.com"},"id":232},
{"type":"Feature","geometry":{"type":"Point","coordinates":[-117.14939459199996,32.88725389600006]},"properties":{"OBJECTID":233,"X":-117.14939459175355,"Y":32.88725389572339,"NAME":"AleSmith Brewing Co","BREW_TYPE":"Regional","URL_12":"www.alesmith.com"},"id":233},
{"type":"Feature","geometry":{"type":"Point","coordinates":[-123.13397440299997,44.04880379900004]},"properties":{"OBJECTID":234,"X":-123.13397440345635,"Y":44.048803799324894,"NAME":"Alesong Brewing and Blending","BREW_TYPE":"Micro","URL_12":"www.alesongbrewing.com"},"id":234},
{"type":"Feature","geometry":{"type":"Point","coordinates":[-76.73233227099996,37.320708456000034]},"properties":{"OBJECTID":235,"X":-76.7323322713332,"Y":37.32070845612391,"NAME":"Alewerks Brewing Company","BREW_TYPE":"Micro","URL_12":"www.alewerks.com"},"id":235},
{"type":"Feature","geometry":{"type":"Point","coordinates":[-119.95380177799996,39.247481881000056]},"properties":{"OBJECTID":236,"X":-119.95380177834863,"Y":39.24748188121069,"NAME":"Alibi Ale Works","BREW_TYPE":"Micro","URL_12":"www.alibialeworks.com"},"id":236},
{"type":"Feature","geometry":{"type":"Point","coordinates":[-106.57123999999999,35.10379001900003]},"properties":{"OBJECTID":237,"X":-106.57123999999999,"Y":35.10379001889884,"NAME":"Alien Brewpub","BREW_TYPE":"Brewpub","URL_12":"www.abqbrewpub.com"},"id":237},
{"type":"Feature","geometry":{"type":"Point","coordinates":[-117.13680470999998,32.89622605100004]},"properties":{"OBJECTID":238,"X":-117.13680471002326,"Y":32.89622605109911,"NAME":"Align Brewing Co","BREW_TYPE":"Micro","URL_12":""},"id":238},
{"type":"Feature","geometry":{"type":"Point","coordinates":[-87.66697623899995,41.88632520500005]},"properties":{"OBJECTID":239,"X":-87.66697623893496,"Y":41.88632520483006,"NAME":"All Rise Brewing Co","BREW_TYPE":"Brewpub","URL_12":"www.allrisebrewing.com"},"id":239},
{"type":"Feature","geometry":{"type":"Point","coordinates":[-79.52622999999994,40.31203000000005]},"properties":{"OBJECTID":240,"X":-79.52622999999994,"Y":40.31203000000005,"NAME":"All Saints Brewing Co","BREW_TYPE":"Micro","URL_12":"www.allsaintscraftbrewing.com"},"id":240},
{"type":"Feature","geometry":{"type":"Point","coordinates":[-70.31829389299998,43.702802965000046]},"properties":{"OBJECTID":241,"X":-70.31829389295436,"Y":43.702802965346834,"NAME":"Allagash Brewing Co","BREW_TYPE":"Regional","URL_12":"www.allagash.com"},"id":241},
{"type":"Feature","geometry":{"type":"Point","coordinates":[-117.806294762,33.85941812400006]},"properties":{"OBJECTID":242,"X":-117.80629476188324,"Y":33.859418123979665,"NAME":"All-American Ale Works","BREW_TYPE":"Micro","URL_12":"www.all-americanaleworks.com"},"id":242},
{"type":"Feature","geometry":{"type":"Point","coordinates":[-80.00046706199998,40.45434280200004]},"properties":{"OBJECTID":243,"X":-80.00046706189048,"Y":40.454342802094864,"NAME":"Allegheny City Brewing","BREW_TYPE":"Micro","URL_12":"www.alleghenycitybrewing.com"},"id":243},
{"type":"Feature","geometry":{"type":"Point","coordinates":[-123.19134299999996,45.21076746800003]},"properties":{"OBJECTID":244,"X":-123.19134299999999,"Y":45.21076746768411,"NAME":"Allegory Brewing","BREW_TYPE":"Micro","URL_12":"www.allegorybrewing.com"},"id":244},
{"type":"Feature","geometry":{"type":"Point","coordinates":[-75.47412467499998,40.60150611900008]},"properties":{"OBJECTID":245,"X":-75.4741246753997,"Y":40.60150611904912,"NAME":"Allentown Brew Works","BREW_TYPE":"Brewpub","URL_12":"www.thebrewworks.com"},"id":245},
{"type":"Feature","geometry":{"type":"Point","coordinates":[-83.90311096299996,35.959715467000024]},"properties":{"OBJECTID":246,"X":-83.90311096335627,"Y":35.95971546681873,"NAME":"Alliance Brewing Company","BREW_TYPE":"Micro","URL_12":"www.alliancebrewing.com"},"id":246},
{"type":"Feature","geometry":{"type":"Point","coordinates":[-82.32456149999996,29.650300522000066]},"properties":{"OBJECTID":247,"X":-82.3245615,"Y":29.65030052207278,"NAME":"Alligator Brewing / Tall Paul's Brewhouse","BREW_TYPE":"Micro","URL_12":""},"id":247},
{"type":"Feature","geometry":{"type":"Point","coordinates":[-93.33622075899996,45.16973804200006]},"properties":{"OBJECTID":248,"X":-93.33622075910314,"Y":45.169738042443434,"NAME":"Alloy Brewing Company","BREW_TYPE":"Micro","URL_12":"www.alloybrewingcompany.com"},"id":248},
{"type":"Feature","geometry":{"type":"Point","coordinates":[-84.51314855599998,38.04365969100007]},"properties":{"OBJECTID":249,"X":-84.51314855617767,"Y":38.04365969138426,"NAME":"Alltech's Lexington Brewing","BREW_TYPE":"Regional","URL_12":"www.Kentuckyale.com"},"id":249},
{"type":"Feature","geometry":{"type":"Point","coordinates":[-93.66662249999996,42.07791152300007]},"properties":{"OBJECTID":250,"X":-93.6666225,"Y":42.07791152279299,"NAME":"Alluvial Brewing Company","BREW_TYPE":"Micro","URL_12":"www.alluvialbrewing.com"},"id":250},
{"type":"Feature","geometry":{"type":"Point","coordinates":[-84.65962049999996,43.37893247000005]},"properties":{"OBJECTID":251,"X":-84.6596205,"Y":43.37893247013694,"NAME":"Alma Brewing Co","BREW_TYPE":"Brewpub","URL_12":"www.almabrewing.com"},"id":251},
{"type":"Feature","geometry":{"type":"Point","coordinates":[-122.29953428799996,37.783055604000026]},"properties":{"OBJECTID":252,"X":-122.29953428792491,"Y":37.7830556041951,"NAME":"Almanac Beer Company","BREW_TYPE":"Micro","URL_12":"almanacbeer.com"},"id":252},
{"type":"Feature","geometry":{"type":"Point","coordinates":[-157.85694802099997,21.30078290800003]},"properties":{"OBJECTID":253,"X":-157.85694802149584,"Y":21.300782908419354,"NAME":"Aloha Beer Co","BREW_TYPE":"Brewpub","URL_12":"www.alohabeer.com"},"id":253},
{"type":"Feature","geometry":{"type":"Point","coordinates":[-117.87868440399996,34.10460888500006]},"properties":{"OBJECTID":254,"X":-117.87868440386038,"Y":34.10460888481737,"NAME":"Alosta Brewing Co","BREW_TYPE":"Micro","URL_12":"www.alostabrewing.com"},"id":254},
{"type":"Feature","geometry":{"type":"Point","coordinates":[-122.26641607899995,37.52048378000006]},"properties":{"OBJECTID":255,"X":-122.26641607891428,"Y":37.52048378022363,"NAME":"Alpha Acid Brewing Co","BREW_TYPE":"Micro","URL_12":""},"id":255},
{"type":"Feature","geometry":{"type":"Point","coordinates":[-90.26256559099994,38.59869461900007]},"properties":{"OBJECTID":256,"X":-90.26256559117662,"Y":38.59869461945316,"NAME":"Alpha Brewing Co.","BREW_TYPE":"Micro","URL_12":"www.alphabrewingcompany.com"},"id":256},
{"type":"Feature","geometry":{"type":"Point","coordinates":[-73.97906549399994,40.72373582000006]},"properties":{"OBJECTID":257,"X":-73.97906549388316,"Y":40.723735819868445,"NAME":"Alphabet City Brewing Co","BREW_TYPE":"Contract","URL_12":"www.acbnyc.com"},"id":257},
{"type":"Feature","geometry":{"type":"Point","coordinates":[-117.17764584399998,32.90656222800004]},"properties":{"OBJECTID":258,"X":-117.1776458437589,"Y":32.90656222848935,"NAME":"Alpine Beer Company","BREW_TYPE":"Brewpub","URL_12":"www.alpinebrewing.com"},"id":258},
{"type":"Feature","geometry":{"type":"Point","coordinates":[-119.34930049999997,48.92124300000006]},"properties":{"OBJECTID":259,"X":-119.34930049999997,"Y":48.92124300000006,"NAME":"Alpine Brewing Co","BREW_TYPE":"Micro","URL_12":"www.alpine-brewing.com"},"id":259},
{"type":"Feature","geometry":{"type":"Point","coordinates":[-104.97486938099996,39.74010112700006]},"properties":{"OBJECTID":260,"X":-104.97486938107272,"Y":39.74010112702424,"NAME":"Alpine Dog Brewing Co","BREW_TYPE":"Micro","URL_12":"www.alpinedogbrewery.com"},"id":260},
{"type":"Feature","geometry":{"type":"Point","coordinates":[-89.33028854099996,43.12393894600007]},"properties":{"OBJECTID":261,"X":-89.33028854053792,"Y":43.12393894615959,"NAME":"ALT Brew / Greenview Brewing LLC","BREW_TYPE":"Micro","URL_12":"www.altbrew.com"},"id":261},
{"type":"Feature","geometry":{"type":"Point","coordinates":[-117.14135785999997,32.702121169000065]},"properties":{"OBJECTID":262,"X":-117.14135785971483,"Y":32.70212116928284,"NAME":"Alta Brewing Company","BREW_TYPE":"Micro","URL_12":"www.altabrewing.com"},"id":262},
{"type":"Feature","geometry":{"type":"Point","coordinates":[-121.72009041599995,37.675677516000064]},"properties":{"OBJECTID":263,"X":-121.72009041618097,"Y":37.67567751601326,"NAME":"Altamont Beer Works","BREW_TYPE":"Micro","URL_12":"www.altamontbeerworks.com"},"id":263},
{"type":"Feature","geometry":{"type":"Point","coordinates":[-88.04018989899998,41.79017349600008]},"properties":{"OBJECTID":264,"X":-88.04018989901294,"Y":41.79017349575815,"NAME":"Alter Brewing Company","BREW_TYPE":"Micro","URL_12":"www.alterbrewing.com"},"id":264},
{"type":"Feature","geometry":{"type":"Point","coordinates":[-104.98754917099996,39.68864919300006]},"properties":{"OBJECTID":265,"X":-104.98754917141763,"Y":39.68864919317329,"NAME":"Alternation Brewing Company","BREW_TYPE":"Micro","URL_12":"www.alternationbrewing.com"},"id":265},
{"type":"Feature","geometry":{"type":"Point","coordinates":[-105.59492999999998,41.310910000000035]},"properties":{"OBJECTID":266,"X":-105.59492999999998,"Y":41.310910000000035,"NAME":"Altitude Chophouse and Brewery","BREW_TYPE":"Brewpub","URL_12":"www.altitudechophouse.com"},"id":266},
{"type":"Feature","geometry":{"type":"Point","coordinates":[-97.94643494099995,29.78736245500005]},"properties":{"OBJECTID":267,"X":-97.94643494050409,"Y":29.787362454902173,"NAME":"Altmeyer and Lewis Brewing Company","BREW_TYPE":"Micro","URL_12":"www.altmeyerlewisbrewing.com"},"id":267},
{"type":"Feature","geometry":{"type":"Point","coordinates":[-72.11326604699997,42.116208604000064]},"properties":{"OBJECTID":268,"X":-72.1132660469155,"Y":42.1162086044495,"NAME":"Altruist Brewing Company","BREW_TYPE":"Brewpub","URL_12":"www.altruistbrewing.com"},"id":268},
{"type":"Feature","geometry":{"type":"Point","coordinates":[-98.79622271799997,30.22506758700007]},"properties":{"OBJECTID":269,"X":-98.79622271756637,"Y":30.225067586768642,"NAME":"Altstadt Brewery","BREW_TYPE":"Micro","URL_12":"www.altstadtbeer.com"},"id":269},
{"type":"Feature","geometry":{"type":"Point","coordinates":[-121.63096236999996,36.64855868400008]},"properties":{"OBJECTID":270,"X":-121.63096237026043,"Y":36.648558684375175,"NAME":"Alvarado Street Brewery","BREW_TYPE":"Micro","URL_12":""},"id":270},
{"type":"Feature","geometry":{"type":"Point","coordinates":[-121.89456217699995,36.59924948300005]},"properties":{"OBJECTID":271,"X":-121.89456217655352,"Y":36.59924948265909,"NAME":"Alvarado Street Brewery &  Grill","BREW_TYPE":null,"URL_12":null},"id":271},
{"type":"Feature","geometry":{"type":"Point","coordinates":[-72.75521328599996,41.66402389500007]},"properties":{"OBJECTID":272,"X":-72.75521328553334,"Y":41.66402389508914,"NAME":"Alvarium Beer Company","BREW_TYPE":"Micro","URL_12":"www.alvariumbeer.com"},"id":272},
{"type":"Feature","geometry":{"type":"Point","coordinates":[-120.84492187599994,38.48188564800006]},"properties":{"OBJECTID":273,"X":-120.84492187598394,"Y":38.481885648353426,"NAME":"Amador Brewing Company","BREW_TYPE":"Micro","URL_12":"www.amadorbrewing.com"},"id":273},
{"type":"Feature","geometry":{"type":"Point","coordinates":[-105.01810927399998,39.812391639000055]},"properties":{"OBJECTID":274,"X":-105.01810927355852,"Y":39.81239163918866,"NAME":"Amalgam Brewing","BREW_TYPE":"Proprietor","URL_12":""},"id":274},
{"type":"Feature","geometry":{"type":"Point","coordinates":[-122.95698475299997,45.534149445000025]},"properties":{"OBJECTID":275,"X":-122.95698475321745,"Y":45.5341494446304,"NAME":"Ambacht Brewing","BREW_TYPE":"Micro","URL_12":"www.ambacht.us"},"id":275},
{"type":"Feature","geometry":{"type":"Point","coordinates":[-78.13255997399995,42.74084005100008]},"properties":{"OBJECTID":276,"X":-78.1325599738878,"Y":42.7408400510705,"NAME":"Amber Lantern Brewing Company","BREW_TYPE":"Brewpub","URL_12":"www.amberlanternbrewingcompany.com"},"id":276},
{"type":"Feature","geometry":{"type":"Point","coordinates":[-81.46229528299995,30.67111968900008]},"properties":{"OBJECTID":277,"X":-81.46229528296493,"Y":30.671119688845454,"NAME":"Amelia Island Brewing Company","BREW_TYPE":"Brewpub","URL_12":"www.theameliatavern.com"},"id":277},
{"type":"Feature","geometry":{"type":"Point","coordinates":[-83.06241135199997,42.32751645900004]},"properties":{"OBJECTID":278,"X":-83.06241135167512,"Y":42.3275164590882,"NAME":"American Badass Beer","BREW_TYPE":"Contract","URL_12":""},"id":278},
{"type":"Feature","geometry":{"type":"Point","coordinates":[-85.53782258399997,42.26678751800006]},"properties":{"OBJECTID":279,"X":-85.53782258381904,"Y":42.266787517889185,"NAME":"American Brewers Inc","BREW_TYPE":"Micro","URL_12":"www.americanbrewers.us"},"id":279},
{"type":"Feature","geometry":{"type":"Point","coordinates":[-122.38616000199994,47.80973997900003]},"properties":{"OBJECTID":280,"X":-122.38616000173074,"Y":47.809739979370526,"NAME":"American Brewing Company","BREW_TYPE":"Brewpub","URL_12":"www.americanbrewing.com"},"id":280},
{"type":"Feature","geometry":{"type":"Point","coordinates":[-83.43277993399994,42.41958992100007]},"properties":{"OBJECTID":281,"X":-83.4327799340729,"Y":42.41958992080011,"NAME":"American Harvest Brewpub At Schoolcraft College","BREW_TYPE":"Brewpub","URL_12":"www.schoolcraft.edu"},"id":281},
{"type":"Feature","geometry":{"type":"Point","coordinates":[-75.85900544599997,41.25502425900004]},"properties":{"OBJECTID":282,"X":-75.85900544630381,"Y":41.25502425895892,"NAME":"American Honor Beer Co","BREW_TYPE":"Contract","URL_12":""},"id":282},
{"type":"Feature","geometry":{"type":"Point","coordinates":[-80.39721414199994,27.637669282000047]},"properties":{"OBJECTID":283,"X":-80.39721414167015,"Y":27.63766928221512,"NAME":"American Icon Brewery","BREW_TYPE":"Brewpub","URL_12":"www.americaniconbrewery.com"},"id":283},
{"type":"Feature","geometry":{"type":"Point","coordinates":[-96.04869142199999,36.137062542000024]},"properties":{"OBJECTID":284,"X":-96.0486914221908,"Y":36.13706254225236,"NAME":"American Solera","BREW_TYPE":"Micro","URL_12":"www.americansolera.com"},"id":284},
{"type":"Feature","geometry":{"type":"Point","coordinates":[-94.47935290899994,39.15440501300003]},"properties":{"OBJECTID":285,"X":-94.47935290860225,"Y":39.15440501327523,"NAME":"Amerisports Brew Pub","BREW_TYPE":"Brewpub","URL_12":"www.ameristar.com"},"id":285},
{"type":"Feature","geometry":{"type":"Point","coordinates":[-72.53282999999993,42.37348000000003]},"properties":{"OBJECTID":286,"X":-72.53282999999993,"Y":42.37348000000003,"NAME":"Amherst Brewing Co / Hangar Pub and Grill","BREW_TYPE":"Brewpub","URL_12":"www.amherstbrewing.com"},"id":286},
{"type":"Feature","geometry":{"type":"Point","coordinates":[-77.40725951299999,37.231011618000025]},"properties":{"OBJECTID":287,"X":-77.40725951315731,"Y":37.23101161809683,"NAME":"Ammo Brewing","BREW_TYPE":"Micro","URL_12":"www.ammobrewing.com"},"id":287},
{"type":"Feature","geometry":{"type":"Point","coordinates":[-71.45349979699995,42.43206375800003]},"properties":{"OBJECTID":288,"X":-71.4534997972789,"Y":42.432063757526144,"NAME":"Amory Tomb Brewing Co.","BREW_TYPE":"Micro","URL_12":"amorystomb.com"},"id":288},
{"type":"Feature","geometry":{"type":"Point","coordinates":[-117.25403909899995,32.79162701100006]},"properties":{"OBJECTID":289,"X":-117.25403909872414,"Y":32.79162701129468,"NAME":"Amplified Ale Works","BREW_TYPE":"Brewpub","URL_12":"www.amplifiedales.com"},"id":289},
{"type":"Feature","geometry":{"type":"Point","coordinates":[-117.15550238299994,32.88737967700007]},"properties":{"OBJECTID":290,"X":-117.1555023831085,"Y":32.88737967673612,"NAME":"Amplified Ale Works Miramar Studio","BREW_TYPE":"Micro","URL_12":""},"id":290},
{"type":"Feature","geometry":{"type":"Point","coordinates":[-119.29359999999997,34.28078992300004]},"properties":{"OBJECTID":291,"X":-119.29359999999997,"Y":34.28078992281747,"NAME":"Anacapa Brewing Co","BREW_TYPE":"Brewpub","URL_12":"www.anacapabrewing.com"},"id":291},
{"type":"Feature","geometry":{"type":"Point","coordinates":[-122.61250999999999,48.51970000000006]},"properties":{"OBJECTID":292,"X":-122.61250999999999,"Y":48.51970000000006,"NAME":"Anacortes Brewery/Rockfish Grill","BREW_TYPE":"Brewpub","URL_12":"www.anacortesrockfish.com"},"id":292},
{"type":"Feature","geometry":{"type":"Point","coordinates":[-117.91275949799996,33.83240852500006]},"properties":{"OBJECTID":293,"X":-117.91275949789386,"Y":33.83240852458294,"NAME":"Anaheim Brewery","BREW_TYPE":"Micro","URL_12":"www.anaheimbrew.com"},"id":293},
{"type":"Feature","geometry":{"type":"Point","coordinates":[-122.79578284099995,45.37115089500003]},"properties":{"OBJECTID":294,"X":-122.79578284141523,"Y":45.37115089549501,"NAME":"Ancestry Brewery","BREW_TYPE":"Brewpub","URL_12":"www.ancestrybrewing.com"},"id":294},
{"type":"Feature","geometry":{"type":"Point","coordinates":[-122.40097235599995,37.763571513000045]},"properties":{"OBJECTID":295,"X":-122.40097235636794,"Y":37.76357151341711,"NAME":"Anchor Brewing Co","BREW_TYPE":"Large","URL_12":"www.anchorbrewing.com"},"id":295},
{"type":"Feature","geometry":{"type":"Point","coordinates":[-149.88922099999996,61.13847300000003]},"properties":{"OBJECTID":296,"X":-149.88922099999996,"Y":61.13847300000006,"NAME":"Anchorage Brewing Co","BREW_TYPE":"Micro","URL_12":"www.anchoragebrewingcompany.com"},"id":296},
{"type":"Feature","geometry":{"type":"Point","coordinates":[-81.41562538199997,29.91155980900004]},"properties":{"OBJECTID":297,"X":-81.41562538201875,"Y":29.911559809394195,"NAME":"Ancient City Brewing Co.","BREW_TYPE":"Micro","URL_12":"www.ancientcitybrewing.com"},"id":297},
{"type":"Feature","geometry":{"type":"Point","coordinates":[-73.95397677499994,41.07893197300007]},"properties":{"OBJECTID":298,"X":-73.95397677549175,"Y":41.07893197313712,"NAME":"Andean Brewing","BREW_TYPE":"Micro","URL_12":""},"id":298},
{"type":"Feature","geometry":{"type":"Point","coordinates":[-123.39071324399998,39.03426783100008]},"properties":{"OBJECTID":299,"X":-123.39071324395125,"Y":39.03426783093852,"NAME":"Anderson Valley Brewing Co","BREW_TYPE":"Regional","URL_12":"www.avbc.com"},"id":299},
{"type":"Feature","geometry":{"type":"Point","coordinates":[-69.13920524999997,44.30713752500003]},"properties":{"OBJECTID":300,"X":-69.13920524966808,"Y":44.30713752484274,"NAME":"Andrews Brewing Co","BREW_TYPE":"Micro","URL_12":""},"id":300},
{"type":"Feature","geometry":{"type":"Point","coordinates":[-83.81306998099996,35.19893000400003]},"properties":{"OBJECTID":301,"X":-83.8130699811012,"Y":35.198930004472096,"NAME":"Andrews Brewing Co At Calaboose Cellars","BREW_TYPE":"Micro","URL_12":"www.calaboosecellars.com"},"id":301},
{"type":"Feature","geometry":{"type":"Point","coordinates":[-118.23805985799999,34.04631600000005]},"properties":{"OBJECTID":302,"X":-118.23805985758004,"Y":34.046316000000004,"NAME":"Angel City Brewery","BREW_TYPE":"Micro","URL_12":"www.angelcitybrewery.com"},"id":302},
{"type":"Feature","geometry":{"type":"Point","coordinates":[-82.45943940999996,28.005138000000045]},"properties":{"OBJECTID":303,"X":-82.45943940977567,"Y":28.005138000000002,"NAME":"Angry Chair Brewing, LLC. ","BREW_TYPE":"Micro","URL_12":"www.angrychairbrewing.com"},"id":303},
{"type":"Feature","geometry":{"type":"Point","coordinates":[-74.71764235799998,41.09347331500004]},"properties":{"OBJECTID":304,"X":-74.71764235755138,"Y":41.09347331530948,"NAME":"Angry Erik Brewing","BREW_TYPE":"Micro","URL_12":"www.angryerik.com"},"id":304},
{"type":"Feature","geometry":{"type":"Point","coordinates":[-108.50790587699998,45.780564354000035]},"properties":{"OBJECTID":305,"X":-108.50790587694016,"Y":45.78056435385779,"NAME":"Angry Hank's Microbrewery","BREW_TYPE":"Micro","URL_12":""},"id":305},
{"type":"Feature","geometry":{"type":"Point","coordinates":[-118.10616275699999,34.00955516600004]},"properties":{"OBJECTID":306,"X":-118.10616275688318,"Y":34.00955516580437,"NAME":"Angry Horse Brewing","BREW_TYPE":"Micro","URL_12":"angryhorsebrewing.com"},"id":306},
{"type":"Feature","geometry":{"type":"Point","coordinates":[-93.24286111199996,44.647632000000044]},"properties":{"OBJECTID":307,"X":-93.2428611122971,"Y":44.647632000000016,"NAME":"Angry Inch Brewing","BREW_TYPE":"Micro","URL_12":""},"id":307},
{"type":"Feature","geometry":{"type":"Point","coordinates":[-106.07590911399996,39.63228553600004]},"properties":{"OBJECTID":308,"X":-106.07590911368207,"Y":39.632285536211036,"NAME":"Angry James Brewing Co","BREW_TYPE":"Micro","URL_12":"www.angryjamesbrewing.com"},"id":308},
{"type":"Feature","geometry":{"type":"Point","coordinates":[-91.48905265699995,46.010453563000056]},"properties":{"OBJECTID":309,"X":-91.48905265707782,"Y":46.01045356287143,"NAME":"Angry Minnow, The","BREW_TYPE":"Brewpub","URL_12":"www.angryminnow.com"},"id":309},
{"type":"Feature","geometry":{"type":"Point","coordinates":[-97.52445016799999,35.46422650300008]},"properties":{"OBJECTID":310,"X":-97.52445016763807,"Y":35.46422650288554,"NAME":"Angry Scotsman Brewing","BREW_TYPE":"Contract","URL_12":"www.angryscotbrew.com"},"id":310},
{"type":"Feature","geometry":{"type":"Point","coordinates":[-80.84893995599998,36.24464997800004]},"properties":{"OBJECTID":311,"X":-80.8489399561429,"Y":36.24464997778305,"NAME":"Angry Troll Brewing / 222 Public House","BREW_TYPE":"Brewpub","URL_12":"www.angrytrollbrewing.com"},"id":311},
{"type":"Feature","geometry":{"type":"Point","coordinates":[-90.21092999999996,38.59662000000003]},"properties":{"OBJECTID":312,"X":-90.21092999999996,"Y":38.59662000000003,"NAME":"Anheuser-Busch InBev","BREW_TYPE":"Large","URL_12":"www.anheuser-busch.com"},"id":312},
{"type":"Feature","geometry":{"type":"Point","coordinates":[-76.30907007999997,43.165690022000035]},"properties":{"OBJECTID":313,"X":-76.3090700796335,"Y":43.16569002207,"NAME":"Anheuser-Busch Inc – Baldwinsville","BREW_TYPE":"Large","URL_12":""},"id":313},
{"type":"Feature","geometry":{"type":"Point","coordinates":[-84.78729730999999,34.25394710100005]},"properties":{"OBJECTID":314,"X":-84.78729730994526,"Y":34.25394710083816,"NAME":"Anheuser-Busch Inc – Cartersville","BREW_TYPE":"Large","URL_12":""},"id":314},
{"type":"Feature","geometry":{"type":"Point","coordinates":[-82.99133007299997,40.10220005700006]},"properties":{"OBJECTID":315,"X":-82.99133007328739,"Y":40.10220005727329,"NAME":"Anheuser-Busch Inc – Columbus","BREW_TYPE":"Large","URL_12":""},"id":315},
{"type":"Feature","geometry":{"type":"Point","coordinates":[-122.09283994699996,38.238689943000054]},"properties":{"OBJECTID":316,"X":-122.09283994662182,"Y":38.23868994316044,"NAME":"Anheuser-Busch Inc – Fairfield","BREW_TYPE":"Large","URL_12":""},"id":316},
{"type":"Feature","geometry":{"type":"Point","coordinates":[-105.00191006499995,40.620190026000046]},"properties":{"OBJECTID":317,"X":-105.00191006477317,"Y":40.620190025535294,"NAME":"Anheuser-Busch Inc - Fort Collins","BREW_TYPE":"Large","URL_12":""},"id":317},
{"type":"Feature","geometry":{"type":"Point","coordinates":[-95.27272999899998,29.774509953000063]},"properties":{"OBJECTID":318,"X":-95.27272999855951,"Y":29.77450995268145,"NAME":"Anheuser-Busch Inc – Houston","BREW_TYPE":"Large","URL_12":""},"id":318},
{"type":"Feature","geometry":{"type":"Point","coordinates":[-81.64801007699998,30.430220011000074]},"properties":{"OBJECTID":319,"X":-81.64801007660566,"Y":30.430220011251862,"NAME":"Anheuser-Busch Inc – Jacksonville","BREW_TYPE":"Large","URL_12":""},"id":319},
{"type":"Feature","geometry":{"type":"Point","coordinates":[-118.48043994199998,34.22129995500006]},"properties":{"OBJECTID":320,"X":-118.48043994157287,"Y":34.22129995542277,"NAME":"Anheuser-Busch Inc - Los Angeles","BREW_TYPE":"Large","URL_12":""},"id":320},
{"type":"Feature","geometry":{"type":"Point","coordinates":[-71.48829999999998,42.82209000000006]},"properties":{"OBJECTID":321,"X":-71.48829999999998,"Y":42.82209000000006,"NAME":"Anheuser-Busch Inc – Merrimack","BREW_TYPE":"Large","URL_12":""},"id":321},
{"type":"Feature","geometry":{"type":"Point","coordinates":[-74.19109999999995,40.691610000000026]},"properties":{"OBJECTID":322,"X":-74.19109999999995,"Y":40.691610000000026,"NAME":"Anheuser-Busch Inc – Newark","BREW_TYPE":"Large","URL_12":"www.anheuser-busch.com"},"id":322},
{"type":"Feature","geometry":{"type":"Point","coordinates":[-76.65211002199999,37.24045997500008]},"properties":{"OBJECTID":323,"X":-76.65211002178337,"Y":37.24045997533207,"NAME":"Anheuser-Busch Inc – Williamsburg","BREW_TYPE":"Large","URL_12":"www.anheuser-busch.com"},"id":323},
{"type":"Feature","geometry":{"type":"Point","coordinates":[-107.87705966699997,37.28005720800007]},"properties":{"OBJECTID":324,"X":-107.87705966691692,"Y":37.28005720760001,"NAME":"Animas Brewing Co","BREW_TYPE":"Brewpub","URL_12":"www.animasbrewing.com"},"id":324},
{"type":"Feature","geometry":{"type":"Point","coordinates":[-97.52777956499995,35.46100012200003]},"properties":{"OBJECTID":325,"X":-97.52777956545715,"Y":35.461000121800446,"NAME":"Anthem Brewing Co","BREW_TYPE":"Micro","URL_12":"www.anthembrewing.com"},"id":325},
{"type":"Feature","geometry":{"type":"Point","coordinates":[-77.76112539499997,39.64079710800007]},"properties":{"OBJECTID":326,"X":-77.76112539485892,"Y":39.64079710820041,"NAME":"Antietam Brewery,LLC","BREW_TYPE":"Micro","URL_12":"www.antietambrewery.com"},"id":326},
{"type":"Feature","geometry":{"type":"Point","coordinates":[-94.96762784799995,32.99607373600003]},"properties":{"OBJECTID":327,"X":-94.96762784845149,"Y":32.996073736012455,"NAME":"Anvil Brewing","BREW_TYPE":"Brewpub","URL_12":"www.anvilbrewingtx.com"},"id":327},
{"type":"Feature","geometry":{"type":"Point","coordinates":[-79.28760820799994,37.362463338000055]},"properties":{"OBJECTID":328,"X":-79.28760820846539,"Y":37.36246333772897,"NAME":"Apocalypse Ale Works","BREW_TYPE":"Micro","URL_12":"www.apocalypsebrewworks.com"},"id":328},
{"type":"Feature","geometry":{"type":"Point","coordinates":[-85.72075564699998,38.256646611000065]},"properties":{"OBJECTID":329,"X":-85.72075564695027,"Y":38.25664661059502,"NAME":"Apocalypse Brew Works","BREW_TYPE":"Micro","URL_12":"www.apocalypsebrewworks.com"},"id":329},
{"type":"Feature","geometry":{"type":"Point","coordinates":[-75.45313995599997,40.18577993000008]},"properties":{"OBJECTID":330,"X":-75.45313995614289,"Y":40.18577993003085,"NAME":"Appalachian Brewing Co - Collegeville","BREW_TYPE":"Brewpub","URL_12":"www.abcbrew.com"},"id":330},
{"type":"Feature","geometry":{"type":"Point","coordinates":[-77.19219035299994,39.842660944000045]},"properties":{"OBJECTID":331,"X":-77.19219035287684,"Y":39.842660944486155,"NAME":"Appalachian Brewing Co - Gettysburg Gateway","BREW_TYPE":"Brewpub","URL_12":"www.abcbrew.com"},"id":331},
{"type":"Feature","geometry":{"type":"Point","coordinates":[-76.87506005899996,40.26586996300006]},"properties":{"OBJECTID":332,"X":-76.87506005943762,"Y":40.265869963356316,"NAME":"Appalachian Brewing Co - Harrisburg","BREW_TYPE":"Brewpub","URL_12":"www.abcbrew.com"},"id":332},
{"type":"Feature","geometry":{"type":"Point","coordinates":[-76.30125547099993,40.15804799800003]},"properties":{"OBJECTID":333,"X":-76.30125547108923,"Y":40.15804799803811,"NAME":"Appalachian Brewing Co - Lititz","BREW_TYPE":"Brewpub","URL_12":"www.abcbrew.com"},"id":333},
{"type":"Feature","geometry":{"type":"Point","coordinates":[-77.01660253299997,40.246546469000066]},"properties":{"OBJECTID":334,"X":-77.01660253292147,"Y":40.24654646883794,"NAME":"Appalachian Brewing Co - Mechanicsburg","BREW_TYPE":"Brewpub","URL_12":"www.abcbrew.com"},"id":334},
{"type":"Feature","geometry":{"type":"Point","coordinates":[-81.66857345699998,36.20318491000006]},"properties":{"OBJECTID":335,"X":-81.66857345654694,"Y":36.20318491009279,"NAME":"Appalachian Mountain Brewery - Boone","BREW_TYPE":"Micro","URL_12":"www.appalachianmountainbrewery.com"},"id":335},
{"type":"Feature","geometry":{"type":"Point","coordinates":[-70.80416087399993,43.08756500900006]},"properties":{"OBJECTID":336,"X":-70.80416087434402,"Y":43.08756500891545,"NAME":"Appalachian Mountain Brewery - Portsmouth","BREW_TYPE":"Micro","URL_12":""},"id":336},
{"type":"Feature","geometry":{"type":"Point","coordinates":[-94.13731961399998,36.12926346200004]},"properties":{"OBJECTID":337,"X":-94.13731961365342,"Y":36.12926346220151,"NAME":"Apple Blossom Brewing Co","BREW_TYPE":"Brewpub","URL_12":"www.appleblossombrewing.com"},"id":337},
{"type":"Feature","geometry":{"type":"Point","coordinates":[-88.41405116499999,44.261797528000045]},"properties":{"OBJECTID":338,"X":-88.41405116472387,"Y":44.26179752842076,"NAME":"Appleton Beer Factory","BREW_TYPE":"Micro","URL_12":"www.appletonbeerfactory.com"},"id":338},
{"type":"Feature","geometry":{"type":"Point","coordinates":[-97.93988262699997,29.881267785000034]},"properties":{"OBJECTID":339,"X":-97.93988262686806,"Y":29.881267784898178,"NAME":"Aquabrew","BREW_TYPE":"Brewpub","URL_12":"www.aqua-brew.com"},"id":339},
{"type":"Feature","geometry":{"type":"Point","coordinates":[-81.51798753099996,41.069052000000056]},"properties":{"OBJECTID":340,"X":-81.51798753093092,"Y":41.069052,"NAME":"Aqueduct Brewing","BREW_TYPE":"Micro","URL_12":"www.aqueductbrewing.shutterfly.com"},"id":340},
{"type":"Feature","geometry":{"type":"Point","coordinates":[-83.74781384099998,42.280418558000065]},"properties":{"OBJECTID":341,"X":-83.7478138411045,"Y":42.28041855785112,"NAME":"Arbor Brewing Co","BREW_TYPE":"Brewpub","URL_12":"www.arborbrewing.com"},"id":341},
{"type":"Feature","geometry":{"type":"Point","coordinates":[-83.61019485999998,42.250257419000036]},"properties":{"OBJECTID":342,"X":-83.61019485980174,"Y":42.25025741909516,"NAME":"Arbor Brewing Co. Microbrewery","BREW_TYPE":"Micro","URL_12":""},"id":342},
{"type":"Feature","geometry":{"type":"Point","coordinates":[-85.57367152299997,42.29480194800004]},"properties":{"OBJECTID":343,"X":-85.5736715226013,"Y":42.2948019480898,"NAME":"Arcadia Brewing Co","BREW_TYPE":"Micro","URL_12":"www.arcadiaales.com"},"id":343},
{"type":"Feature","geometry":{"type":"Point","coordinates":[-93.75430999999998,39.000950000000046]},"properties":{"OBJECTID":344,"X":-93.75430999999998,"Y":39.000950000000046,"NAME":"Arcadian Moon","BREW_TYPE":"Brewpub","URL_12":"www.arcadianmoon.com"},"id":344},
{"type":"Feature","geometry":{"type":"Point","coordinates":[-117.27241482799997,33.13947232600003]},"properties":{"OBJECTID":345,"X":-117.27241482824924,"Y":33.13947232615953,"NAME":"Arcana Brewing Company","BREW_TYPE":"Micro","URL_12":"www.arcanabrewing.com"},"id":345},
{"type":"Feature","geometry":{"type":"Point","coordinates":[-124.41543384099998,42.388857450000046]},"properties":{"OBJECTID":346,"X":-124.41543384147987,"Y":42.38885745045877,"NAME":"Arch Rock Brewing Co","BREW_TYPE":"Micro","URL_12":"www.archrockbrewingcompany.com"},"id":346},
{"type":"Feature","geometry":{"type":"Point","coordinates":[-117.82316276999995,33.74202548300008]},"properties":{"OBJECTID":347,"X":-117.82316277007722,"Y":33.74202548281527,"NAME":"Archaic Craft Brewery At Centro","BREW_TYPE":"Brewpub","URL_12":""},"id":347},
{"type":"Feature","geometry":{"type":"Point","coordinates":[-84.40926856999994,33.66256212800005]},"properties":{"OBJECTID":348,"X":-84.4092685704019,"Y":33.662562127964584,"NAME":"Arches Brewing","BREW_TYPE":"Micro","URL_12":""},"id":348},
{"type":"Feature","geometry":{"type":"Point","coordinates":[-82.57470602099994,35.57822523600004]},"properties":{"OBJECTID":349,"X":-82.57470602097625,"Y":35.57822523619365,"NAME":"Archetype Brewing","BREW_TYPE":"Micro","URL_12":"www.archetypebrewing.com"},"id":349},
{"type":"Feature","geometry":{"type":"Point","coordinates":[-86.25939723099998,42.19123334600005]},"properties":{"OBJECTID":350,"X":-86.2593972305391,"Y":42.191233345807724,"NAME":"Arclight Brewing Company","BREW_TYPE":"Micro","URL_12":"www.arclightbrewing.com"},"id":350},
{"type":"Feature","geometry":{"type":"Point","coordinates":[-72.37229749999995,42.29182539900006]},"properties":{"OBJECTID":351,"X":-72.37229749985576,"Y":42.291825398868724,"NAME":"Arcpoint Brewing Co","BREW_TYPE":"Proprietor","URL_12":"www.arcpointbrewco.com"},"id":351},
{"type":"Feature","geometry":{"type":"Point","coordinates":[-77.47205469199997,37.568227861000025]},"properties":{"OBJECTID":352,"X":-77.47205469219233,"Y":37.56822786095559,"NAME":"Ardent Craft Ales","BREW_TYPE":"Micro","URL_12":"www.ardentcraftales.com"},"id":352},
{"type":"Feature","geometry":{"type":"Point","coordinates":[-75.68373995699994,39.70777682000005]},"properties":{"OBJECTID":353,"X":-75.68373995674848,"Y":39.707776820185586,"NAME":"Argilla Brewing Co @ Pietro's Pizza","BREW_TYPE":"Brewpub","URL_12":"www.argillabrewing.com"},"id":353},
{"type":"Feature","geometry":{"type":"Point","coordinates":[-87.61182644999997,41.68852656800004]},"properties":{"OBJECTID":354,"X":-87.61182644979493,"Y":41.6885265678631,"NAME":"Argus Brewery","BREW_TYPE":"Micro","URL_12":"www.argusbrewery.com"},"id":354},
{"type":"Feature","geometry":{"type":"Point","coordinates":[-73.49698996699993,43.08758001100006]},"properties":{"OBJECTID":355,"X":-73.49698996667443,"Y":43.08758001110856,"NAME":"Argyle Brewing Company","BREW_TYPE":"Micro","URL_12":"www.argylebrewing.com"},"id":355},
{"type":"Feature","geometry":{"type":"Point","coordinates":[-111.84182707199994,33.36298947000006]},"properties":{"OBJECTID":356,"X":-111.8418270718165,"Y":33.36298947016561,"NAME":"Arizona Wilderness Brewing","BREW_TYPE":"Brewpub","URL_12":"Azwbeer.com"},"id":356},
{"type":"Feature","geometry":{"type":"Point","coordinates":[-82.76131398299998,27.916670452000062]},"properties":{"OBJECTID":357,"X":-82.7613139832656,"Y":27.916670452246844,"NAME":"Arkane Aleworks","BREW_TYPE":"Micro","URL_12":"www.arkanebeer.com"},"id":357},
{"type":"Feature","geometry":{"type":"Point","coordinates":[-149.10614099999998,61.58188247000004]},"properties":{"OBJECTID":358,"X":-149.106141,"Y":61.581882470136954,"NAME":"Arkose Brewery","BREW_TYPE":"Micro","URL_12":"www.arkosebrewery.com"},"id":358},
{"type":"Feature","geometry":{"type":"Point","coordinates":[-122.68194306899994,45.517695023000044]},"properties":{"OBJECTID":359,"X":-122.68194306895961,"Y":45.51769502305372,"NAME":"Arlington Club","BREW_TYPE":"Micro","URL_12":"www.thearlingtonclub.com"},"id":359},
{"type":"Feature","geometry":{"type":"Point","coordinates":[-72.87389058999997,41.28978326300006]},"properties":{"OBJECTID":360,"X":-72.87389058953184,"Y":41.289783263142525,"NAME":"Armada Brewing","BREW_TYPE":"Contract","URL_12":"www.armadabeer.com"},"id":360},
{"type":"Feature","geometry":{"type":"Point","coordinates":[-97.12837007599995,33.212806544000046]},"properties":{"OBJECTID":361,"X":-97.12837007643277,"Y":33.21280654426112,"NAME":"Armadillo Ale Works","BREW_TYPE":"Micro","URL_12":"www.armadilloaleworks.com"},"id":361},
{"type":"Feature","geometry":{"type":"Point","coordinates":[-122.34648764099995,37.91938777900003]},"properties":{"OBJECTID":362,"X":-122.34648764117921,"Y":37.91938777904114,"NAME":"Armistice Brewing Company","BREW_TYPE":"Micro","URL_12":"www.armisticebrewing.com"},"id":362},
{"type":"Feature","geometry":{"type":"Point","coordinates":[-122.41298664799996,37.65576794000003]},"properties":{"OBJECTID":363,"X":-122.41298664821967,"Y":37.65576794030256,"NAME":"Armstrong Brewing Co","BREW_TYPE":"Micro","URL_12":"www.armstrongbrewing.com"},"id":363},
{"type":"Feature","geometry":{"type":"Point","coordinates":[-87.79485086299997,41.900290994000045]},"properties":{"OBJECTID":364,"X":-87.79485086320594,"Y":41.90029099417163,"NAME":"Around the Bend Beer Co.","BREW_TYPE":"Contract","URL_12":"www.atbbeerco.com"},"id":364},
{"type":"Feature","geometry":{"type":"Point","coordinates":[-117.87708559199996,34.10541701400007]},"properties":{"OBJECTID":365,"X":-117.87708559233678,"Y":34.105417013923194,"NAME":"Arrow Lodge Brewing","BREW_TYPE":"Micro","URL_12":""},"id":365},
{"type":"Feature","geometry":{"type":"Point","coordinates":[-87.95714665099996,41.48196360800006]},"properties":{"OBJECTID":366,"X":-87.95714665070024,"Y":41.481963607825044,"NAME":"Arrowhead Ales Brewing Company","BREW_TYPE":"Brewpub","URL_12":"www.arrowheadales.com"},"id":366},
{"type":"Feature","geometry":{"type":"Point","coordinates":[-74.24921689599995,41.80635420200008]},"properties":{"OBJECTID":367,"X":-74.24921689618566,"Y":41.80635420177164,"NAME":"Arrowood Farms","BREW_TYPE":"Micro","URL_12":"www.arrowoodfarms.com"},"id":367},
{"type":"Feature","geometry":{"type":"Point","coordinates":[-117.60614341499996,33.44952438800004]},"properties":{"OBJECTID":368,"X":-117.60614341463423,"Y":33.44952438815346,"NAME":"Artifex Brewing Company","BREW_TYPE":"Micro","URL_12":"www.artifexbrewing.com"},"id":368},
{"type":"Feature","geometry":{"type":"Point","coordinates":[-73.81480528599997,43.05934978700003]},"properties":{"OBJECTID":369,"X":-73.814805285562,"Y":43.05934978717719,"NAME":"Artisanal Brew Works","BREW_TYPE":"Micro","URL_12":"www.artisanalbrewworks.com"},"id":369},
{"type":"Feature","geometry":{"type":"Point","coordinates":[-74.18298999999996,39.977220000000045]},"properties":{"OBJECTID":370,"X":-74.18298999999996,"Y":39.977220000000045,"NAME":"Artisan's Brewery &  Italian Grill","BREW_TYPE":null,"URL_12":null},"id":370},
{"type":"Feature","geometry":{"type":"Point","coordinates":[-118.23513731499997,34.044748189000074]},"properties":{"OBJECTID":371,"X":-118.23513731530947,"Y":34.04474818898969,"NAME":"Arts District Brewing Company","BREW_TYPE":"Brewpub","URL_12":""},"id":371},
{"type":"Feature","geometry":{"type":"Point","coordinates":[-79.80470998999994,42.22518999300007]},"properties":{"OBJECTID":372,"X":-79.80470999047894,"Y":42.22518999264338,"NAME":"Arundel Cellars &  Brewing Co","BREW_TYPE":null,"URL_12":null},"id":372},
{"type":"Feature","geometry":{"type":"Point","coordinates":[-85.77197279699999,42.90895776800005]},"properties":{"OBJECTID":373,"X":-85.77197279731448,"Y":42.908957768328,"NAME":"Arvon Brewing Co.","BREW_TYPE":"Micro","URL_12":"www.arvonbrewingco.com"},"id":373},
{"type":"Feature","geometry":{"type":"Point","coordinates":[-74.01224385399996,40.21955901700005]},"properties":{"OBJECTID":374,"X":-74.01224385391076,"Y":40.21955901681697,"NAME":"Asbury Park Brewery","BREW_TYPE":"Micro","URL_12":"www.asburyparkbrewery.com"},"id":374},
{"type":"Feature","geometry":{"type":"Point","coordinates":[-83.46119314499998,42.477677682000035]},"properties":{"OBJECTID":375,"X":-83.46119314538569,"Y":42.47767768221646,"NAME":"Ascension Brewing Company","BREW_TYPE":"Brewpub","URL_12":"www.ascension.beer"},"id":375},
{"type":"Feature","geometry":{"type":"Point","coordinates":[-87.03293115599996,35.61763736900008]},