{"type":"FeatureCollection", "features": [
{"type":"Feature","geometry":{"type":"Point","coordinates":[-71.06206196499994,42.359154483000054]},"properties":{"Loc_name":"World","Status":"M","Score":100,"ARC_Addres":"1 Ashburton Place","ADDRESS_St":"1 Ashburton Place","TYPE_1":"ATM","CITY_1":"Boston","State":"Massachusetts"}},
{"type":"Feature","geometry":{"type":"Point","coordinates":[-71.06056201899997,42.358038849000025]},"properties":{"Loc_name":"World","Status":"T","Score":100,"ARC_Addres":"1 Beacon Street","ADDRESS_St":"1 Beacon Street","TYPE_1":"Branch","CITY_1":"Boston","State":"Massachusetts"}},
{"type":"Feature","geometry":{"type":"Point","coordinates":[-71.07042422299997,42.36755012500004]},"properties":{"Loc_name":"World","Status":"M","Score":100,"ARC_Addres":"1 Science Park","ADDRESS_St":"1 Science Park","TYPE_1":"ATM","CITY_1":"Boston","State":"Massachusetts"}},
{"type":"Feature","geometry":{"type":"Point","coordinates":[-71.07962389699998,42.34705590900006]},"properties":{"Loc_name":"World","Status":"M","Score":100,"ARC_Addres":"100 Huntington Ave","ADDRESS_St":"100 Huntington Ave","TYPE_1":"ATM","CITY_1":"Boston","State":"Massachusetts"}},
{"type":"Feature","geometry":{"type":"Point","coordinates":[-71.05291957099996,42.355975070000056]},"properties":{"Loc_name":"World","Status":"M","Score":100,"ARC_Addres":"100 Oliver Street","ADDRESS_St":"100 Oliver Street","TYPE_1":"Branch","CITY_1":"Boston","State":"Massachusetts"}},
{"type":"Feature","geometry":{"type":"Point","coordinates":[-71.05457904599996,42.38139057400008]},"properties":{"Loc_name":"World","Status":"M","Score":100,"ARC_Addres":"100 Terminal A","ADDRESS_St":"100 Terminal A","TYPE_1":"ATM","CITY_1":"Boston","State":"Massachusetts"}},
{"type":"Feature","geometry":{"type":"Point","coordinates":[-71.05457904599996,42.38139057400008]},"properties":{"Loc_name":"World","Status":"M","Score":97.74,"ARC_Addres":"100 Terminal Road","ADDRESS_St":"100 Terminal Road","TYPE_1":"ATM","CITY_1":"Boston","State":"Massachusetts"}},
{"type":"Feature","geometry":{"type":"Point","coordinates":[-71.06022966099994,42.36469906100007]},"properties":{"Loc_name":"World","Status":"M","Score":100,"ARC_Addres":"101 Canal St","ADDRESS_St":"101 Canal St","TYPE_1":"ATM","CITY_1":"Boston","State":"Massachusetts"}},
{"type":"Feature","geometry":{"type":"Point","coordinates":[-71.08038247199994,42.34656289600008]},"properties":{"Loc_name":"World","Status":"M","Score":100,"ARC_Addres":"111 Huntington Avenue","ADDRESS_St":"111 Huntington Avenue","TYPE_1":"ATM","CITY_1":"Boston","State":"Massachusetts"}},
{"type":"Feature","geometry":{"type":"Point","coordinates":[-70.99975172099994,42.38415852500003]},"properties":{"Loc_name":"World","Status":"M","Score":100,"ARC_Addres":"1150 Saratoga St","ADDRESS_St":"1150 Saratoga St","TYPE_1":"ATM","CITY_1":"Boston","State":"Massachusetts"}},
{"type":"Feature","geometry":{"type":"Point","coordinates":[-71.10023191799996,42.345618537000064]},"properties":{"Loc_name":"World","Status":"M","Score":100,"ARC_Addres":"121 Brookline Avenue","ADDRESS_St":"121 Brookline Avenue","TYPE_1":"ATM","CITY_1":"Boston","State":"Massachusetts"}},
{"type":"Feature","geometry":{"type":"Point","coordinates":[-71.09564100799997,42.34515195000006]},"properties":{"Loc_name":"World","Status":"M","Score":100,"ARC_Addres":"1249 Boylston St","ADDRESS_St":"1249 Boylston St","TYPE_1":"ATM","CITY_1":"Boston","State":"Massachusetts"}},
{"type":"Feature","geometry":{"type":"Point","coordinates":[-71.06138002699998,42.36539046000007]},"properties":{"Loc_name":"World","Status":"M","Score":100,"ARC_Addres":"125 Causeway Street","ADDRESS_St":"125 Causeway Street","TYPE_1":"Branch","CITY_1":"Boston","State":"Massachusetts"}},
{"type":"Feature","geometry":{"type":"Point","coordinates":[-71.05605146099998,42.35346169700006]},"properties":{"Loc_name":"World","Status":"M","Score":100,"ARC_Addres":"176 Federal Street","ADDRESS_St":"176 Federal Street","TYPE_1":"Branch","CITY_1":"Boston","State":"Massachusetts"}},
{"type":"Feature","geometry":{"type":"Point","coordinates":[-71.12523242099996,42.35840069500006]},"properties":{"Loc_name":"World","Status":"T","Score":100,"ARC_Addres":"191 Cambridge St","ADDRESS_St":"191 Cambridge St","TYPE_1":"ATM","CITY_1":"Boston","State":"Massachusetts"}},
{"type":"Feature","geometry":{"type":"Point","coordinates":[-71.06002158399997,42.35985978600007]},"properties":{"Loc_name":"World","Status":"M","Score":100,"ARC_Addres":"2 Center Plz","ADDRESS_St":"2 Center Plz","TYPE_1":"ATM","CITY_1":"Boston","State":"Massachusetts"}},
{"type":"Feature","geometry":{"type":"Point","coordinates":[-71.04114625699998,42.349043893000044]},"properties":{"Loc_name":"World","Status":"M","Score":100,"ARC_Addres":"2 Seaport Lane","ADDRESS_St":"2 Seaport Lane","TYPE_1":"ATM","CITY_1":"Boston","State":"Massachusetts"}},
{"type":"Feature","geometry":{"type":"Point","coordinates":[-71.05541995899995,42.35253376600008]},"properties":{"Loc_name":"World","Status":"M","Score":97.8,"ARC_Addres":"2 South Station Concourse","ADDRESS_St":"2 South Station Concourse","TYPE_1":"ATM","CITY_1":"Boston","State":"Massachusetts"}},
{"type":"Feature","geometry":{"type":"Point","coordinates":[-71.04169691099997,42.350084915000025]},"properties":{"Loc_name":"World","Status":"M","Score":100,"ARC_Addres":"200 Seaport Blvd","ADDRESS_St":"200 Seaport Blvd","TYPE_1":"ATM","CITY_1":"Boston","State":"Massachusetts"}},
{"type":"Feature","geometry":{"type":"Point","coordinates":[-71.04169691099997,42.350084915000025]},"properties":{"Loc_name":"World","Status":"M","Score":100,"ARC_Addres":"200 Seaport Boulevard","ADDRESS_St":"200 Seaport Boulevard","TYPE_1":"Branch","CITY_1":"Boston","State":"Massachusetts"}},
{"type":"Feature","geometry":{"type":"Point","coordinates":[-71.05711989999998,42.38189057400007]},"properties":{"Loc_name":"World","Status":"M","Score":100,"ARC_Addres":"200 Terminal B","ADDRESS_St":"200 Terminal B","TYPE_1":"ATM","CITY_1":"Boston","State":"Massachusetts"}},
{"type":"Feature","geometry":{"type":"Point","coordinates":[-71.10667290999999,42.34188732100006]},"properties":{"Loc_name":"World","Status":"M","Score":99.99,"ARC_Addres":"200 The Riverway","ADDRESS_St":"200 The Riverway","TYPE_1":"ATM","CITY_1":"Boston","State":"Massachusetts"}},
{"type":"Feature","geometry":{"type":"Point","coordinates":[-71.05533945799993,42.36296669200004]},"properties":{"Loc_name":"World","Status":"M","Score":100,"ARC_Addres":"218 Hanover St","ADDRESS_St":"218 Hanover St","TYPE_1":"ATM","CITY_1":"Boston","State":"Massachusetts"}},
{"type":"Feature","geometry":{"type":"Point","coordinates":[-71.06768129199997,42.27391761300004]},"properties":{"Loc_name":"World","Status":"M","Score":100,"ARC_Addres":"2235 Dorchester Ave","ADDRESS_St":"2235 Dorchester Ave","TYPE_1":"ATM","CITY_1":"Boston","State":"Massachusetts"}},
{"type":"Feature","geometry":{"type":"Point","coordinates":[-71.08631401399998,42.34442985800007]},"properties":{"Loc_name":"World","Status":"M","Score":100,"ARC_Addres":"231 Massachusetts Ave","ADDRESS_St":"231 Massachusetts Ave","TYPE_1":"ATM","CITY_1":"Boston","State":"Massachusetts"}},
{"type":"Feature","geometry":{"type":"Point","coordinates":[-71.08193389399997,42.34971111900006]},"properties":{"Loc_name":"World","Status":"M","Score":100,"ARC_Addres":"240 Newbury St","ADDRESS_St":"240 Newbury St","TYPE_1":"ATM","CITY_1":"Boston","State":"Massachusetts"}},
{"type":"Feature","geometry":{"type":"Point","coordinates":[-71.05786854999997,42.35800767200004]},"properties":{"Loc_name":"World","Status":"T","Score":100,"ARC_Addres":"250 Washington St","ADDRESS_St":"250 Washington St","TYPE_1":"ATM","CITY_1":"Boston","State":"Massachusetts"}},
{"type":"Feature","geometry":{"type":"Point","coordinates":[-71.08594265799996,42.34355829500004]},"properties":{"Loc_name":"World","Status":"M","Score":100,"ARC_Addres":"279 Massachusetts Avenue","ADDRESS_St":"279 Massachusetts Avenue","TYPE_1":"Branch","CITY_1":"Boston","State":"Massachusetts"}},
{"type":"Feature","geometry":{"type":"Point","coordinates":[-71.05440337099998,42.363846651000074]},"properties":{"Loc_name":"World","Status":"M","Score":100,"ARC_Addres":"287 Hanover Street","ADDRESS_St":"287 Hanover Street","TYPE_1":"Branch","CITY_1":"Boston","State":"Massachusetts"}},
{"type":"Feature","geometry":{"type":"Point","coordinates":[-71.06145425199998,42.35585414700006]},"properties":{"Loc_name":"World","Status":"T","Score":100,"ARC_Addres":"30 Winter Street","ADDRESS_St":"30 Winter Street","TYPE_1":"Branch","CITY_1":"Boston","State":"Massachusetts"}},
{"type":"Feature","geometry":{"type":"Point","coordinates":[-71.05975552099994,42.38188183400007]},"properties":{"Loc_name":"World","Status":"M","Score":97.74,"ARC_Addres":"300 Terminal Road","ADDRESS_St":"300 Terminal Road","TYPE_1":"ATM","CITY_1":"Boston","State":"Massachusetts"}},
{"type":"Feature","geometry":{"type":"Point","coordinates":[-71.09815170599995,42.31590270700008]},"properties":{"Loc_name":"World","Status":"M","Score":100,"ARC_Addres":"3060 Washington Street","ADDRESS_St":"3060 Washington Street","TYPE_1":"Branch","CITY_1":"Boston","State":"Massachusetts"}},
{"type":"Feature","geometry":{"type":"Point","coordinates":[-71.05899118999997,42.356812138000066]},"properties":{"Loc_name":"World","Status":"T","Score":100,"ARC_Addres":"333 Washington St","ADDRESS_St":"333 Washington St","TYPE_1":"ATM","CITY_1":"Boston","State":"Massachusetts"}},
{"type":"Feature","geometry":{"type":"Point","coordinates":[-71.10716933799995,42.33878718300008]},"properties":{"Loc_name":"World","Status":"M","Score":100,"ARC_Addres":"350 Longwood Ave","ADDRESS_St":"350 Longwood Ave","TYPE_1":"ATM","CITY_1":"Boston","State":"Massachusetts"}},
{"type":"Feature","geometry":{"type":"Point","coordinates":[-71.09010074799994,42.340011411000035]},"properties":{"Loc_name":"World","Status":"T","Score":100,"ARC_Addres":"369 Huntington Ave","ADDRESS_St":"369 Huntington Ave","TYPE_1":"ATM","CITY_1":"Boston","State":"Massachusetts"}},
{"type":"Feature","geometry":{"type":"Point","coordinates":[-71.10195366199997,42.34138188700007]},"properties":{"Loc_name":"World","Status":"M","Score":99.99,"ARC_Addres":"400 The Fenway","ADDRESS_St":"400 The Fenway","TYPE_1":"ATM","CITY_1":"Boston","State":"Massachusetts"}},
{"type":"Feature","geometry":{"type":"Point","coordinates":[-71.06868305699999,42.34720820700005]},"properties":{"Loc_name":"World","Status":"M","Score":100,"ARC_Addres":"400 Tremont St","ADDRESS_St":"400 Tremont St","TYPE_1":"ATM","CITY_1":"Boston","State":"Massachusetts"}},
{"type":"Feature","geometry":{"type":"Point","coordinates":[-71.07121492799996,42.38046362400007]},"properties":{"Loc_name":"World","Status":"M","Score":100,"ARC_Addres":"437 Rutherford Avenue","ADDRESS_St":"437 Rutherford Avenue","TYPE_1":"Branch","CITY_1":"Boston","State":"Massachusetts"}},
{"type":"Feature","geometry":{"type":"Point","coordinates":[-71.09278309599995,42.33828527800006]},"properties":{"Loc_name":"World","Status":"M","Score":97.96,"ARC_Addres":"460 Rear Parker Street","ADDRESS_St":"460 Rear Parker Street","TYPE_1":"ATM","CITY_1":"Boston","State":"Massachusetts"}},
{"type":"Feature","geometry":{"type":"Point","coordinates":[-71.03621348399997,42.34388906300006]},"properties":{"Loc_name":"World","Status":"M","Score":91.88,"ARC_Addres":"500 Terminal Road","ADDRESS_St":"500 Terminal Road","TYPE_1":"ATM","CITY_1":"Boston","State":"Massachusetts"}},
{"type":"Feature","geometry":{"type":"Point","coordinates":[-71.07055749499995,42.34464420100005]},"properties":{"Loc_name":"World","Status":"M","Score":100,"ARC_Addres":"521 Tremont Street","ADDRESS_St":"521 Tremont Street","TYPE_1":"Branch","CITY_1":"Boston","State":"Massachusetts"}},
{"type":"Feature","geometry":{"type":"Point","coordinates":[-71.07121075899994,42.34427307200008]},"properties":{"Loc_name":"World","Status":"M","Score":100,"ARC_Addres":"539 Tremont Street","ADDRESS_St":"539 Tremont Street","TYPE_1":"ATM","CITY_1":"Boston","State":"Massachusetts"}},
{"type":"Feature","geometry":{"type":"Point","coordinates":[-71.12513351299998,42.258885004000035]},"properties":{"Loc_name":"World","Status":"T","Score":100,"ARC_Addres":"55 Summer St","ADDRESS_St":"55 Summer St","TYPE_1":"ATM","CITY_1":"Boston","State":"Massachusetts"}},
{"type":"Feature","geometry":{"type":"Point","coordinates":[-71.09707049999997,42.348748466000075]},"properties":{"Loc_name":"World","Status":"M","Score":100,"ARC_Addres":"552 Commonwealth Avenue","ADDRESS_St":"552 Commonwealth Avenue","TYPE_1":"Branch","CITY_1":"Boston","State":"Massachusetts"}},
{"type":"Feature","geometry":{"type":"Point","coordinates":[-71.08123266099994,42.340930093000054]},"properties":{"Loc_name":"World","Status":"M","Score":100,"ARC_Addres":"566 Columbus Avenue","ADDRESS_St":"566 Columbus Avenue","TYPE_1":"ATM","CITY_1":"Boston","State":"Massachusetts"}},
{"type":"Feature","geometry":{"type":"Point","coordinates":[-71.07645762899995,42.35035695800008]},"properties":{"Loc_name":"World","Status":"M","Score":100,"ARC_Addres":"575 Boylston Street","ADDRESS_St":"575 Boylston Street","TYPE_1":"Branch","CITY_1":"Boston","State":"Massachusetts"}},
{"type":"Feature","geometry":{"type":"Point","coordinates":[-71.07700785899993,42.350253258000066]},"properties":{"Loc_name":"World","Status":"M","Score":100,"ARC_Addres":"587 Boylston St","ADDRESS_St":"587 Boylston St","TYPE_1":"ATM","CITY_1":"Boston","State":"Massachusetts"}},
{"type":"Feature","geometry":{"type":"Point","coordinates":[-71.10533628199994,42.33442776700008]},"properties":{"Loc_name":"World","Status":"M","Score":100,"ARC_Addres":"6 Francis Street","ADDRESS_St":"6 Francis Street","TYPE_1":"Branch","CITY_1":"Boston","State":"Massachusetts"}},
{"type":"Feature","geometry":{"type":"Point","coordinates":[-71.11744281299997,42.26080833100008]},"properties":{"Loc_name":"World","Status":"T","Score":100,"ARC_Addres":"61 Arlington Street","ADDRESS_St":"61 Arlington Street","TYPE_1":"Branch","CITY_1":"Boston","State":"Massachusetts"}},
{"type":"Feature","geometry":{"type":"Point","coordinates":[-71.06130356099999,42.35130792100006]},"properties":{"Loc_name":"World","Status":"M","Score":100,"ARC_Addres":"61 Harrison Avenue","ADDRESS_St":"61 Harrison Avenue","TYPE_1":"Branch","CITY_1":"Boston","State":"Massachusetts"}},
{"type":"Feature","geometry":{"type":"Point","coordinates":[-71.06262056299994,42.35261651500008]},"properties":{"Loc_name":"World","Status":"T","Score":100,"ARC_Addres":"631 Washington St","ADDRESS_St":"631 Washington St","TYPE_1":"ATM","CITY_1":"Boston","State":"Massachusetts"}},
{"type":"Feature","geometry":{"type":"Point","coordinates":[-71.06960812599993,42.356165049000026]},"properties":{"Loc_name":"World","Status":"T","Score":100,"ARC_Addres":"67 Beacon Street","ADDRESS_St":"67 Beacon Street","TYPE_1":"Branch","CITY_1":"Boston","State":"Massachusetts"}},
{"type":"Feature","geometry":{"type":"Point","coordinates":[-71.07269241399996,42.33608060100005]},"properties":{"Loc_name":"World","Status":"M","Score":100,"ARC_Addres":"72 East Concord Street","ADDRESS_St":"72 East Concord Street","TYPE_1":"ATM","CITY_1":"Boston","State":"Massachusetts"}},
{"type":"Feature","geometry":{"type":"Point","coordinates":[-71.10768499899996,42.350032627000076]},"properties":{"Loc_name":"World","Status":"M","Score":100,"ARC_Addres":"730 Commonwealth Ave","ADDRESS_St":"730 Commonwealth Ave","TYPE_1":"ATM","CITY_1":"Boston","State":"Massachusetts"}},
{"type":"Feature","geometry":{"type":"Point","coordinates":[-71.05549427799997,42.35903182000004]},"properties":{"Loc_name":"World","Status":"M","Score":100,"ARC_Addres":"75 State Street","ADDRESS_St":"75 State Street","TYPE_1":"Branch","CITY_1":"Boston","State":"Massachusetts"}},
{"type":"Feature","geometry":{"type":"Point","coordinates":[-71.05647934099994,42.35493110700003]},"properties":{"Loc_name":"World","Status":"M","Score":100,"ARC_Addres":"101 Federal Street","ADDRESS_St":"101 Federal Street","TYPE_1":"Branch","CITY_1":"Boston","State":"Massachusetts"}},
{"type":"Feature","geometry":{"type":"Point","coordinates":[-71.06354878599996,42.34998845300004]},"properties":{"Loc_name":"World","Status":"T","Score":100,"ARC_Addres":"769 Washington St","ADDRESS_St":"769 Washington St","TYPE_1":"ATM","CITY_1":"Boston","State":"Massachusetts"}},
{"type":"Feature","geometry":{"type":"Point","coordinates":[-71.10911660799997,42.35043932900004]},"properties":{"Loc_name":"World","Status":"M","Score":100,"ARC_Addres":"775 Commonwealth Ave","ADDRESS_St":"775 Commonwealth Ave","TYPE_1":"ATM","CITY_1":"Boston","State":"Massachusetts"}},
{"type":"Feature","geometry":{"type":"Point","coordinates":[-71.08272554199993,42.348594916000025]},"properties":{"Loc_name":"World","Status":"M","Score":100,"ARC_Addres":"800 Boylston Street","ADDRESS_St":"800 Boylston Street","TYPE_1":"Branch","CITY_1":"Boston","State":"Massachusetts"}},
{"type":"Feature","geometry":{"type":"Point","coordinates":[-71.04462895299997,42.35127364900006]},"properties":{"Loc_name":"World","Status":"M","Score":100,"ARC_Addres":"85 Seaport Blvd","ADDRESS_St":"85 Seaport Blvd","TYPE_1":"ATM","CITY_1":"Boston","State":"Massachusetts"}},
{"type":"Feature","geometry":{"type":"Point","coordinates":[-71.07469569199998,42.33519327800008]},"properties":{"Loc_name":"World","Status":"M","Score":100,"ARC_Addres":"850 Harrison Avenue","ADDRESS_St":"850 Harrison Avenue","TYPE_1":"ATM","CITY_1":"Boston","State":"Massachusetts"}},
{"type":"Feature","geometry":{"type":"Point","coordinates":[-71.07469569199998,42.33519327800008]},"properties":{"Loc_name":"World","Status":"M","Score":100,"ARC_Addres":"850 Harrison Avenue","ADDRESS_St":"850 Harrison Avenue","TYPE_1":"Branch","CITY_1":"Boston","State":"Massachusetts"}},
{"type":"Feature","geometry":{"type":"Point","coordinates":[-71.10847313699998,42.262471367000046]},"properties":{"Loc_name":"World","Status":"M","Score":100,"ARC_Addres":"860 River Street","ADDRESS_St":"860 River Street","TYPE_1":"Branch","CITY_1":"Boston","State":"Massachusetts"}},
{"type":"Feature","geometry":{"type":"Point","coordinates":[-71.07602815499996,42.33415790500004]},"properties":{"Loc_name":"World","Status":"M","Score":100,"ARC_Addres":"874 Harrison Ave","ADDRESS_St":"874 Harrison Ave","TYPE_1":"ATM","CITY_1":"Boston","State":"Massachusetts"}},
{"type":"Feature","geometry":{"type":"Point","coordinates":[-71.11610671499994,42.35103563000007]},"properties":{"Loc_name":"World","Status":"M","Score":100,"ARC_Addres":"900 Commonwealth Ave","ADDRESS_St":"900 Commonwealth Ave","TYPE_1":"ATM","CITY_1":"Boston","State":"Massachusetts"}},
{"type":"Feature","geometry":{"type":"Point","coordinates":[-71.04117786599994,42.349053867000066]},"properties":{"Loc_name":"World","Status":"M","Score":96.82,"ARC_Addres":"One Seaport Lane","ADDRESS_St":"One Seaport Lane","TYPE_1":"ATM","CITY_1":"Boston","State":"Massachusetts"}},
{"type":"Feature","geometry":{"type":"Point","coordinates":[-71.05696540699995,42.36104295000007]},"properties":{"Loc_name":"World","Status":"T","Score":96.82,"ARC_Addres":"One Union Street","ADDRESS_St":"One Union Street","TYPE_1":"ATM","CITY_1":"Boston","State":"Massachusetts"}},
{"type":"Feature","geometry":{"type":"Point","coordinates":[-71.11901571299995,42.388589127000046]},"properties":{"Loc_name":"World","Status":"M","Score":100,"ARC_Addres":"1 Porter Square","ADDRESS_St":"1 Porter Square","TYPE_1":"ATM","CITY_1":"Cambridge","State":"Massachusetts"}},
{"type":"Feature","geometry":{"type":"Point","coordinates":[-71.08755838099995,42.36387770500005]},"properties":{"Loc_name":"World","Status":"T","Score":97.83,"ARC_Addres":"100 Cambridge Place","ADDRESS_St":"100 Cambridge Place","TYPE_1":"ATM","CITY_1":"Cambridge","State":"Massachusetts"}},
{"type":"Feature","geometry":{"type":"Point","coordinates":[-71.11893207199995,42.37380944100005]},"properties":{"Loc_name":"World","Status":"T","Score":100,"ARC_Addres":"1420 Massachusetts Avenue","ADDRESS_St":"1420 Massachusetts Avenue","TYPE_1":"Branch","CITY_1":"Cambridge","State":"Massachusetts"}},
{"type":"Feature","geometry":{"type":"Point","coordinates":[-71.14278681199994,42.38936048200003]},"properties":{"Loc_name":"World","Status":"M","Score":100,"ARC_Addres":"211 Alewife Brook Pkwy","ADDRESS_St":"211 Alewife Brook Pkwy","TYPE_1":"ATM","CITY_1":"Cambridge","State":"Massachusetts"}},
{"type":"Feature","geometry":{"type":"Point","coordinates":[-71.11761663099998,42.38874388600004]},"properties":{"Loc_name":"World","Status":"M","Score":98.7,"ARC_Addres":"36 White St","ADDRESS_St":"36 White St","TYPE_1":"ATM","CITY_1":"Cambridge","State":"Massachusetts"}},
{"type":"Feature","geometry":{"type":"Point","coordinates":[-71.10188883799998,42.36433539400008]},"properties":{"Loc_name":"World","Status":"M","Score":100,"ARC_Addres":"515 Massachusetts Avenue","ADDRESS_St":"515 Massachusetts Avenue","TYPE_1":"Branch","CITY_1":"Cambridge","State":"Massachusetts"}},
{"type":"Feature","geometry":{"type":"Point","coordinates":[-71.11959721899996,42.37319185500007]},"properties":{"Loc_name":"World","Status":"M","Score":100,"ARC_Addres":"6 Jfk St","ADDRESS_St":"6 Jfk St","TYPE_1":"ATM","CITY_1":"Cambridge","State":"Massachusetts"}},
{"type":"Feature","geometry":{"type":"Point","coordinates":[-71.10338566499996,42.36517371600007]},"properties":{"Loc_name":"World","Status":"M","Score":100,"ARC_Addres":"624 Massachusetts Ave","ADDRESS_St":"624 Massachusetts Ave","TYPE_1":"ATM","CITY_1":"Cambridge","State":"Massachusetts"}},
{"type":"Feature","geometry":{"type":"Point","coordinates":[-71.11862059299995,42.33291371200005]},"properties":{"Loc_name":"World","Status":"T","Score":100,"ARC_Addres":"1 Harvard Street","ADDRESS_St":"1 Harvard Street","TYPE_1":"Branch","CITY_1":"Brookline","State":"Massachusetts"}},
{"type":"Feature","geometry":{"type":"Point","coordinates":[-71.12188331799996,42.34180206800005]},"properties":{"Loc_name":"World","Status":"M","Score":100,"ARC_Addres":"1341 Beacon Street","ADDRESS_St":"1341 Beacon Street","TYPE_1":"Branch","CITY_1":"Brookline","State":"Massachusetts"}},
{"type":"Feature","geometry":{"type":"Point","coordinates":[-71.12271757499997,42.343029526000066]},"properties":{"Loc_name":"World","Status":"M","Score":100,"ARC_Addres":"294 Harvard St","ADDRESS_St":"294 Harvard St","TYPE_1":"ATM","CITY_1":"Brookline","State":"Massachusetts"}},
{"type":"Feature","geometry":{"type":"Point","coordinates":[-71.12381914799994,42.33483829000005]},"properties":{"Loc_name":"World","Status":"M","Score":100,"ARC_Addres":"400 Washington St","ADDRESS_St":"400 Washington St","TYPE_1":"ATM","CITY_1":"Brookline","State":"Massachusetts"}},
{"type":"Feature","geometry":{"type":"Point","coordinates":[-71.08409977699995,42.38792846900003]},"properties":{"Loc_name":"World","Status":"M","Score":100,"ARC_Addres":"125 Broadway","ADDRESS_St":"125 Broadway","TYPE_1":"Branch","CITY_1":"Somerville","State":"Massachusetts"}},
{"type":"Feature","geometry":{"type":"Point","coordinates":[-71.10121859099996,42.38169926000006]},"properties":{"Loc_name":"World","Status":"M","Score":100,"ARC_Addres":"400 Somerville Ave","ADDRESS_St":"400 Somerville Ave","TYPE_1":"ATM","CITY_1":"Somerville","State":"Massachusetts"}},
{"type":"Feature","geometry":{"type":"Point","coordinates":[-71.12058159699995,42.39577518100003]},"properties":{"Loc_name":"World","Status":"M","Score":100,"ARC_Addres":"403 Highland Avenue","ADDRESS_St":"403 Highland Avenue","TYPE_1":"Branch","CITY_1":"Somerville","State":"Massachusetts"}},
{"type":"Feature","geometry":{"type":"Point","coordinates":[-71.12240304699998,42.39623667500007]},"properties":{"Loc_name":"World","Status":"M","Score":97.16,"ARC_Addres":"One Davis Square","ADDRESS_St":"One Davis Square","TYPE_1":"ATM","CITY_1":"Somerville","State":"Massachusetts"}},
{"type":"Feature","geometry":{"type":"Point","coordinates":[-71.19344646999997,42.36221366700005]},"properties":{"Loc_name":"World","Status":"M","Score":100,"ARC_Addres":"189 Watertown St","ADDRESS_St":"189 Watertown St","TYPE_1":"ATM","CITY_1":"Watertown","State":"Massachusetts"}},
{"type":"Feature","geometry":{"type":"Point","coordinates":[-71.18525682299997,42.36590312200008]},"properties":{"Loc_name":"World","Status":"M","Score":100,"ARC_Addres":"27 Main St","ADDRESS_St":"27 Main St","TYPE_1":"ATM","CITY_1":"Watertown","State":"Massachusetts"}},
{"type":"Feature","geometry":{"type":"Point","coordinates":[-71.15699616299997,42.37187882100005]},"properties":{"Loc_name":"World","Status":"M","Score":100,"ARC_Addres":"655 Mt Auburn St","ADDRESS_St":"655 Mt Auburn St","TYPE_1":"ATM","CITY_1":"Watertown","State":"Massachusetts"}},
{"type":"Feature","geometry":{"type":"Point","coordinates":[-71.18622629799995,42.366566618000036]},"properties":{"Loc_name":"World","Status":"M","Score":100,"ARC_Addres":"75 Main Street","ADDRESS_St":"75 Main Street","TYPE_1":"Branch","CITY_1":"Watertown","State":"Massachusetts"}},
{"type":"Feature","geometry":{"type":"Point","coordinates":[-71.02350286699993,42.40384935600008]},"properties":{"Loc_name":"World","Status":"M","Score":100,"ARC_Addres":"1010 Revere Beach Pkwy","ADDRESS_St":"1010 Revere Beach Pkwy","TYPE_1":"ATM","CITY_1":"Chelsea","State":"Massachusetts"}},
{"type":"Feature","geometry":{"type":"Point","coordinates":[-71.03984505999995,42.39618973700004]},"properties":{"Loc_name":"World","Status":"M","Score":100,"ARC_Addres":"148 Everett Avenue","ADDRESS_St":"148 Everett Avenue","TYPE_1":"Branch","CITY_1":"Chelsea","State":"Massachusetts"}},
{"type":"Feature","geometry":{"type":"Point","coordinates":[-71.04001773899995,42.39672419500005]},"properties":{"Loc_name":"World","Status":"M","Score":100,"ARC_Addres":"170 Everett Ave","ADDRESS_St":"170 Everett Ave","TYPE_1":"ATM","CITY_1":"Chelsea","State":"Massachusetts"}},
{"type":"Feature","geometry":{"type":"Point","coordinates":[-71.03625731499994,42.39158737200006]},"properties":{"Loc_name":"World","Status":"M","Score":100,"ARC_Addres":"324 Broadway","ADDRESS_St":"324 Broadway","TYPE_1":"ATM","CITY_1":"Chelsea","State":"Massachusetts"}},
{"type":"Feature","geometry":{"type":"Point","coordinates":[-70.98755352299997,42.37576480800004]},"properties":{"Loc_name":"World","Status":"M","Score":100,"ARC_Addres":"3 Woodside Ave","ADDRESS_St":"3 Woodside Ave","TYPE_1":"ATM","CITY_1":"Winthrop","State":"Massachusetts"}},
{"type":"Feature","geometry":{"type":"Point","coordinates":[-71.23048738199998,42.32683530600008]},"properties":{"Loc_name":"World","Status":"M","Score":100,"ARC_Addres":"4 Windsor Road","ADDRESS_St":"4 Windsor Road","TYPE_1":"ATM","CITY_1":"Newton","State":"Massachusetts"}},
{"type":"Feature","geometry":{"type":"Point","coordinates":[-71.18672702699996,42.29906749000003]},"properties":{"Loc_name":"World","Status":"M","Score":100,"ARC_Addres":"777 Dedham Street","ADDRESS_St":"777 Dedham Street","TYPE_1":"ATM","CITY_1":"Newton","State":"Massachusetts"}},
{"type":"Feature","geometry":{"type":"Point","coordinates":[-71.19293802399994,42.33031669600007]},"properties":{"Loc_name":"World","Status":"M","Score":100,"ARC_Addres":"780 Beacon Street","ADDRESS_St":"780 Beacon Street","TYPE_1":"Branch","CITY_1":"Newton","State":"Massachusetts"}},
{"type":"Feature","geometry":{"type":"Point","coordinates":[-71.20709999999997,42.338550000000055]},"properties":{"Loc_name":"World","Status":"M","Score":91.25,"ARC_Addres":"Newton, MA 02464","ADDRESS_St":"Newton, MA 02464","TYPE_1":"ATM","CITY_1":"Newton","State":"Massachusetts"}},
{"type":"Feature","geometry":{"type":"Point","coordinates":[-71.11975169799996,42.40589142500005]},"properties":{"Loc_name":"World","Status":"M","Score":100,"ARC_Addres":"44 Professors Row","ADDRESS_St":"44 Professors Row","TYPE_1":"ATM","CITY_1":"Medford","State":"Massachusetts"}},
{"type":"Feature","geometry":{"type":"Point","coordinates":[-71.10747523799995,42.41748830600005]},"properties":{"Loc_name":"World","Status":"M","Score":100,"ARC_Addres":"55 Riverside Ave","ADDRESS_St":"55 Riverside Ave","TYPE_1":"ATM","CITY_1":"Medford","State":"Massachusetts"}},
{"type":"Feature","geometry":{"type":"Point","coordinates":[-71.08264377899997,42.404636098000026]},"properties":{"Loc_name":"World","Status":"M","Score":100,"ARC_Addres":"590 Fellsway","ADDRESS_St":"590 Fellsway","TYPE_1":"ATM","CITY_1":"Medford","State":"Massachusetts"}},
{"type":"Feature","geometry":{"type":"Point","coordinates":[-71.11233403099999,42.418959259000076]},"properties":{"Loc_name":"World","Status":"M","Score":100,"ARC_Addres":"85 High St","ADDRESS_St":"85 High St","TYPE_1":"ATM","CITY_1":"Medford","State":"Massachusetts"}},
{"type":"Feature","geometry":{"type":"Point","coordinates":[-71.05500845799997,42.407576289000076]},"properties":{"Loc_name":"World","Status":"M","Score":100,"ARC_Addres":"459 Broadway","ADDRESS_St":"459 Broadway","TYPE_1":"Branch","CITY_1":"Everett","State":"Massachusetts"}},
{"type":"Feature","geometry":{"type":"Point","coordinates":[-71.13712182799998,42.40164613500008]},"properties":{"Loc_name":"World","Status":"M","Score":100,"ARC_Addres":"23 Massachusetts Avenue","ADDRESS_St":"23 Massachusetts Avenue","TYPE_1":"ATM","CITY_1":"Arlington","State":"Massachusetts"}},
{"type":"Feature","geometry":{"type":"Point","coordinates":[-71.16078044999995,42.41688037700004]},"properties":{"Loc_name":"World","Status":"M","Score":100,"ARC_Addres":"833 Massachusetts Avenue","ADDRESS_St":"833 Massachusetts Avenue","TYPE_1":"ATM","CITY_1":"Arlington","State":"Massachusetts"}},
{"type":"Feature","geometry":{"type":"Point","coordinates":[-71.18094420199998,42.383158028000025]},"properties":{"Loc_name":"World","Status":"M","Score":100,"ARC_Addres":"264 Trapelo Rd","ADDRESS_St":"264 Trapelo Rd","TYPE_1":"ATM","CITY_1":"Belmont","State":"Massachusetts"}},
{"type":"Feature","geometry":{"type":"Point","coordinates":[-71.17561950699996,42.39684270400005]},"properties":{"Loc_name":"World","Status":"M","Score":100,"ARC_Addres":"35 Leonard Street","ADDRESS_St":"35 Leonard Street","TYPE_1":"Branch","CITY_1":"Belmont","State":"Massachusetts"}},
{"type":"Feature","geometry":{"type":"Point","coordinates":[-71.17542966299999,42.39751358500007]},"properties":{"Loc_name":"World","Status":"M","Score":100,"ARC_Addres":"60 Leonard St","ADDRESS_St":"60 Leonard St","TYPE_1":"ATM","CITY_1":"Belmont","State":"Massachusetts"}},
{"type":"Feature","geometry":{"type":"Point","coordinates":[-71.00512575399995,42.25360782800004]},"properties":{"Loc_name":"World","Status":"M","Score":100,"ARC_Addres":"1150 Hancock Street","ADDRESS_St":"1150 Hancock Street","TYPE_1":"Branch","CITY_1":"Quincy","State":"Massachusetts"}},
{"type":"Feature","geometry":{"type":"Point","coordinates":[-71.02290459599993,42.287379729000065]},"properties":{"Loc_name":"World","Status":"M","Score":100,"ARC_Addres":"321 Quincy Shore Dr","ADDRESS_St":"321 Quincy Shore Dr","TYPE_1":"ATM","CITY_1":"Quincy","State":"Massachusetts"}},
{"type":"Feature","geometry":{"type":"Point","coordinates":[-70.99514947499995,42.25387792600003]},"properties":{"Loc_name":"World","Status":"M","Score":100,"ARC_Addres":"495 Southern Artery","ADDRESS_St":"495 Southern Artery","TYPE_1":"ATM","CITY_1":"Quincy","State":"Massachusetts"}},
{"type":"Feature","geometry":{"type":"Point","coordinates":[-70.98933459899996,42.252547407000066]},"properties":{"Loc_name":"World","Status":"M","Score":100,"ARC_Addres":"626 Southern Artery","ADDRESS_St":"626 Southern Artery","TYPE_1":"ATM","CITY_1":"Quincy","State":"Massachusetts"}},
{"type":"Feature","geometry":{"type":"Point","coordinates":[-71.04012128799997,42.43038628700003]},"properties":{"Loc_name":"World","Status":"M","Score":100,"ARC_Addres":"1080 Eastern Ave","ADDRESS_St":"1080 Eastern Ave","TYPE_1":"ATM","CITY_1":"Malden","State":"Massachusetts"}},
{"type":"Feature","geometry":{"type":"Point","coordinates":[-71.06569795299998,42.42592463600005]},"properties":{"Loc_name":"World","Status":"M","Score":100,"ARC_Addres":"32 Ferry St","ADDRESS_St":"32 Ferry St","TYPE_1":"ATM","CITY_1":"Malden","State":"Massachusetts"}},
{"type":"Feature","geometry":{"type":"Point","coordinates":[-71.03175179299996,42.44049546000008]},"properties":{"Loc_name":"World","Status":"M","Score":100,"ARC_Addres":"575 Broadway","ADDRESS_St":"575 Broadway","TYPE_1":"Branch","CITY_1":"Malden","State":"Massachusetts"}},
{"type":"Feature","geometry":{"type":"Point","coordinates":[-71.01318580099996,42.426387427000066]},"properties":{"Loc_name":"World","Status":"M","Score":100,"ARC_Addres":"300 Squire Rd","ADDRESS_St":"300 Squire Rd","TYPE_1":"ATM","CITY_1":"Revere","State":"Massachusetts"}},
{"type":"Feature","geometry":{"type":"Point","coordinates":[-71.01305251699995,42.40900774800008]},"properties":{"Loc_name":"World","Status":"M","Score":100,"ARC_Addres":"330 Broadway","ADDRESS_St":"330 Broadway","TYPE_1":"Branch","CITY_1":"Revere","State":"Massachusetts"}},
{"type":"Feature","geometry":{"type":"Point","coordinates":[-71.11147014699998,42.23438831100003]},"properties":{"Loc_name":"World","Status":"M","Score":100,"ARC_Addres":"1071 Blue Hill Avenue","ADDRESS_St":"1071 Blue Hill Avenue","TYPE_1":"ATM","CITY_1":"Milton","State":"Massachusetts"}},
{"type":"Feature","geometry":{"type":"Point","coordinates":[-71.15451409599996,42.248073730000044]},"properties":{"Loc_name":"World","Status":"M","Score":100,"ARC_Addres":"270 Bussey St","ADDRESS_St":"270 Bussey St","TYPE_1":"ATM","CITY_1":"Dedham","State":"Massachusetts"}},
{"type":"Feature","geometry":{"type":"Point","coordinates":[-71.17236917099996,42.24908878000008]},"properties":{"Loc_name":"World","Status":"M","Score":100,"ARC_Addres":"339 Washington Street","ADDRESS_St":"339 Washington Street","TYPE_1":"Branch","CITY_1":"Dedham","State":"Massachusetts"}},
{"type":"Feature","geometry":{"type":"Point","coordinates":[-71.18002342799997,42.233510171000034]},"properties":{"Loc_name":"World","Status":"M","Score":100,"ARC_Addres":"929 Providence Highway","ADDRESS_St":"929 Providence Highway","TYPE_1":"Branch","CITY_1":"Dedham","State":"Massachusetts"}},
{"type":"Feature","geometry":{"type":"Point","coordinates":[-71.18008602999998,42.23327452500007]},"properties":{"Loc_name":"World","Status":"M","Score":100,"ARC_Addres":"947 Providence Hwy","ADDRESS_St":"947 Providence Hwy","TYPE_1":"ATM","CITY_1":"Dedham","State":"Massachusetts"}},
{"type":"Feature","geometry":{"type":"Point","coordinates":[-71.23239890299993,42.298349520000045]},"properties":{"Loc_name":"World","Status":"M","Score":99.9,"ARC_Addres":"695 Highland Avenue","ADDRESS_St":"695 Highland Avenue","TYPE_1":"Branch","CITY_1":"Needham","State":"Massachusetts"}},
{"type":"Feature","geometry":{"type":"Point","coordinates":[-71.23511636199999,42.29266212700003]},"properties":{"Loc_name":"World","Status":"M","Score":99.9,"ARC_Addres":"936 Highland Ave","ADDRESS_St":"936 Highland Ave","TYPE_1":"ATM","CITY_1":"Needham","State":"Massachusetts"}},
{"type":"Feature","geometry":{"type":"Point","coordinates":[-71.23630908999996,42.28033861700004]},"properties":{"Loc_name":"World","Status":"M","Score":100,"ARC_Addres":"965 Great Plain Avenue","ADDRESS_St":"965 Great Plain Avenue","TYPE_1":"Branch","CITY_1":"Needham","State":"Massachusetts"}},
{"type":"Feature","geometry":{"type":"Point","coordinates":[-71.23646910299993,42.28018221200006]},"properties":{"Loc_name":"World","Status":"M","Score":100,"ARC_Addres":"980 Great Plain Ave","ADDRESS_St":"980 Great Plain Ave","TYPE_1":"ATM","CITY_1":"Needham","State":"Massachusetts"}},
{"type":"Feature","geometry":{"type":"Point","coordinates":[-71.29901222999996,42.29584952700003]},"properties":{"Loc_name":"World","Status":"M","Score":99.9,"ARC_Addres":"106 Central Street","ADDRESS_St":"106 Central Street","TYPE_1":"ATM","CITY_1":"Wellesley","State":"Massachusetts"}},
{"type":"Feature","geometry":{"type":"Point","coordinates":[-71.29134587099998,42.30055138000006]},"properties":{"Loc_name":"World","Status":"M","Score":100,"ARC_Addres":"188 Linden St","ADDRESS_St":"188 Linden St","TYPE_1":"ATM","CITY_1":"Wellesley","State":"Massachusetts"}},
{"type":"Feature","geometry":{"type":"Point","coordinates":[-71.26219545299995,42.29916308500003]},"properties":{"Loc_name":"World","Status":"M","Score":99.9,"ARC_Addres":"231 Forest Street","ADDRESS_St":"231 Forest Street","TYPE_1":"ATM","CITY_1":"Wellesley","State":"Massachusetts"}},
{"type":"Feature","geometry":{"type":"Point","coordinates":[-71.26085638099994,42.32491182600006]},"properties":{"Loc_name":"World","Status":"M","Score":99.9,"ARC_Addres":"25 Washington St","ADDRESS_St":"25 Washington St","TYPE_1":"ATM","CITY_1":"Wellesley","State":"Massachusetts"}},
{"type":"Feature","geometry":{"type":"Point","coordinates":[-71.28887767899994,42.30177498100005]},"properties":{"Loc_name":"World","Status":"M","Score":100,"ARC_Addres":"277 Linden Street","ADDRESS_St":"277 Linden Street","TYPE_1":"Branch","CITY_1":"Wellesley","State":"Massachusetts"}},
{"type":"Feature","geometry":{"type":"Point","coordinates":[-71.27470836899994,42.311998852000045]},"properties":{"Loc_name":"World","Status":"M","Score":99.9,"ARC_Addres":"302 Washington Street","ADDRESS_St":"302 Washington Street","TYPE_1":"ATM","CITY_1":"Wellesley","State":"Massachusetts"}},
{"type":"Feature","geometry":{"type":"Point","coordinates":[-71.29673512299996,42.296087398000054]},"properties":{"Loc_name":"World","Status":"M","Score":100,"ARC_Addres":"65 Central St","ADDRESS_St":"65 Central St","TYPE_1":"ATM","CITY_1":"Wellesley","State":"Massachusetts"}},
{"type":"Feature","geometry":{"type":"Point","coordinates":[-71.23637120799998,42.31635954800004]},"properties":{"Loc_name":"World","Status":"M","Score":97.73,"ARC_Addres":"96 Worcester Rd","ADDRESS_St":"96 Worcester Rd","TYPE_1":"ATM","CITY_1":"Wellesley","State":"Massachusetts"}},
{"type":"Feature","geometry":{"type":"Point","coordinates":[-71.32376091499998,42.30444852000005]},"properties":{"Loc_name":"World","Status":"M","Score":100,"ARC_Addres":"984 Worcester St","ADDRESS_St":"984 Worcester St","TYPE_1":"ATM","CITY_1":"Wellesley","State":"Massachusetts"}},
{"type":"Feature","geometry":{"type":"Point","coordinates":[-71.22866695299996,42.44813121200008]},"properties":{"Loc_name":"World","Status":"M","Score":100,"ARC_Addres":"1822 Massachusetts Avenue","ADDRESS_St":"1822 Massachusetts Avenue","TYPE_1":"Branch","CITY_1":"Lexington","State":"Massachusetts"}},
{"type":"Feature","geometry":{"type":"Point","coordinates":[-71.13810743399995,42.452650187000074]},"properties":{"Loc_name":"World","Status":"M","Score":100,"ARC_Addres":"7 Church Street","ADDRESS_St":"7 Church Street","TYPE_1":"Branch","CITY_1":"Winchester","State":"Massachusetts"}},
{"type":"Feature","geometry":{"type":"Point","coordinates":[-71.23498403299993,42.41135588800006]},"properties":{"Loc_name":"World","Status":"M","Score":100,"ARC_Addres":"1045 Trapelo Road","ADDRESS_St":"1045 Trapelo Road","TYPE_1":"Branch","CITY_1":"Waltham","State":"Massachusetts"}},
{"type":"Feature","geometry":{"type":"Point","coordinates":[-71.24376294399997,42.375808205000055]},"properties":{"Loc_name":"World","Status":"M","Score":100,"ARC_Addres":"12 Harvard St","ADDRESS_St":"12 Harvard St","TYPE_1":"ATM","CITY_1":"Waltham","State":"Massachusetts"}},
{"type":"Feature","geometry":{"type":"Point","coordinates":[-71.22246452799999,42.39062269400006]},"properties":{"Loc_name":"World","Status":"M","Score":100,"ARC_Addres":"175 Forest Street","ADDRESS_St":"175 Forest Street","TYPE_1":"ATM","CITY_1":"Waltham","State":"Massachusetts"}},
{"type":"Feature","geometry":{"type":"Point","coordinates":[-71.25786031399997,42.36469640000007]},"properties":{"Loc_name":"World","Status":"M","Score":100,"ARC_Addres":"415 South Street","ADDRESS_St":"415 South Street","TYPE_1":"ATM","CITY_1":"Waltham","State":"Massachusetts"}},
{"type":"Feature","geometry":{"type":"Point","coordinates":[-71.23859120799995,42.37608430600005]},"properties":{"Loc_name":"World","Status":"M","Score":100,"ARC_Addres":"700 Main Street","ADDRESS_St":"700 Main Street","TYPE_1":"Branch","CITY_1":"Waltham","State":"Massachusetts"}},
{"type":"Feature","geometry":{"type":"Point","coordinates":[-71.23410911399998,42.40261640700004]},"properties":{"Loc_name":"World","Status":"M","Score":100,"ARC_Addres":"800 Lexington St","ADDRESS_St":"800 Lexington St","TYPE_1":"ATM","CITY_1":"Waltham","State":"Massachusetts"}},
{"type":"Feature","geometry":{"type":"Point","coordinates":[-70.96242946799998,42.46256739900008]},"properties":{"Loc_name":"World","Status":"M","Score":100,"ARC_Addres":"200 S Common St","ADDRESS_St":"200 S Common St","TYPE_1":"ATM","CITY_1":"Lynn","State":"Massachusetts"}},
{"type":"Feature","geometry":{"type":"Point","coordinates":[-70.96443872399993,42.46279755300003]},"properties":{"Loc_name":"World","Status":"M","Score":100,"ARC_Addres":"35 Market Square","ADDRESS_St":"35 Market Square","TYPE_1":"Branch","CITY_1":"Lynn","State":"Massachusetts"}},
{"type":"Feature","geometry":{"type":"Point","coordinates":[-70.94288728999999,42.463452833000076]},"properties":{"Loc_name":"World","Status":"M","Score":100,"ARC_Addres":"39 Exchange Street","ADDRESS_St":"39 Exchange Street","TYPE_1":"Branch","CITY_1":"Lynn","State":"Massachusetts"}},
{"type":"Feature","geometry":{"type":"Point","coordinates":[-70.95718986199995,42.48292189800003]},"properties":{"Loc_name":"World","Status":"M","Score":100,"ARC_Addres":"414 Broadway","ADDRESS_St":"414 Broadway","TYPE_1":"Branch","CITY_1":"Lynn","State":"Massachusetts"}},
{"type":"Feature","geometry":{"type":"Point","coordinates":[-70.93646634099997,42.481409392000046]},"properties":{"Loc_name":"World","Status":"M","Score":100,"ARC_Addres":"509 Eastern Avenue","ADDRESS_St":"509 Eastern Avenue","TYPE_1":"ATM","CITY_1":"Lynn","State":"Massachusetts"}},
{"type":"Feature","geometry":{"type":"Point","coordinates":[-70.95720499299995,42.47704240500008]},"properties":{"Loc_name":"World","Status":"M","Score":100,"ARC_Addres":"65 Boston St","ADDRESS_St":"65 Boston St","TYPE_1":"ATM","CITY_1":"Lynn","State":"Massachusetts"}},
{"type":"Feature","geometry":{"type":"Point","coordinates":[-71.30069932399994,42.36710904100005]},"properties":{"Loc_name":"World","Status":"M","Score":100,"ARC_Addres":"25 Center Street","ADDRESS_St":"25 Center Street","TYPE_1":"Branch","CITY_1":"Weston","State":"Massachusetts"}},
{"type":"Feature","geometry":{"type":"Point","coordinates":[-71.15294346299999,42.47958077000004]},"properties":{"Loc_name":"World","Status":"M","Score":100,"ARC_Addres":"19 Pleasant Street","ADDRESS_St":"19 Pleasant Street","TYPE_1":"Branch","CITY_1":"Woburn","State":"Massachusetts"}},
{"type":"Feature","geometry":{"type":"Point","coordinates":[-71.15953130999998,42.499643828000046]},"properties":{"Loc_name":"World","Status":"M","Score":100,"ARC_Addres":"2 Elm Street","ADDRESS_St":"2 Elm Street","TYPE_1":"Branch","CITY_1":"Woburn","State":"Massachusetts"}},
{"type":"Feature","geometry":{"type":"Point","coordinates":[-71.13275773899994,42.50379129600003]},"properties":{"Loc_name":"World","Status":"M","Score":97.06,"ARC_Addres":"300 Mishawam Rd","ADDRESS_St":"300 Mishawam Rd","TYPE_1":"ATM","CITY_1":"Woburn","State":"Massachusetts"}},
{"type":"Feature","geometry":{"type":"Point","coordinates":[-71.12972627499994,42.50435183600007]},"properties":{"Loc_name":"World","Status":"M","Score":100,"ARC_Addres":"310 Mishawum Rd","ADDRESS_St":"310 Mishawum Rd","TYPE_1":"ATM","CITY_1":"Woburn","State":"Massachusetts"}},
{"type":"Feature","geometry":{"type":"Point","coordinates":[-71.15118061299995,42.480712038000036]},"properties":{"Loc_name":"World","Status":"M","Score":100,"ARC_Addres":"415 Main St","ADDRESS_St":"415 Main St","TYPE_1":"ATM","CITY_1":"Woburn","State":"Massachusetts"}},
{"type":"Feature","geometry":{"type":"Point","coordinates":[-71.16041581799993,42.50752464000004]},"properties":{"Loc_name":"World","Status":"M","Score":100,"ARC_Addres":"891 Main St","ADDRESS_St":"891 Main St","TYPE_1":"ATM","CITY_1":"Woburn","State":"Massachusetts"}},
{"type":"Feature","geometry":{"type":"Point","coordinates":[-71.00460675699998,42.22618090000003]},"properties":{"Loc_name":"World","Status":"M","Score":100,"ARC_Addres":"178 Washington St","ADDRESS_St":"178 Washington St","TYPE_1":"ATM","CITY_1":"Braintree","State":"Massachusetts"}},
{"type":"Feature","geometry":{"type":"Point","coordinates":[-71.02912962499994,42.22045202600003]},"properties":{"Loc_name":"World","Status":"M","Score":100,"ARC_Addres":"30 Forbes Road","ADDRESS_St":"30 Forbes Road","TYPE_1":"Branch","CITY_1":"Braintree","State":"Massachusetts"}},
{"type":"Feature","geometry":{"type":"Point","coordinates":[-71.06537495899994,42.455041021000056]},"properties":{"Loc_name":"World","Status":"M","Score":100,"ARC_Addres":"492 Main Street","ADDRESS_St":"492 Main Street","TYPE_1":"Branch","CITY_1":"Melrose","State":"Massachusetts"}},
{"type":"Feature","geometry":{"type":"Point","coordinates":[-71.06502977999997,42.455580464000036]},"properties":{"Loc_name":"World","Status":"M","Score":100,"ARC_Addres":"516 Main St","ADDRESS_St":"516 Main St","TYPE_1":"ATM","CITY_1":"Melrose","State":"Massachusetts"}},
{"type":"Feature","geometry":{"type":"Point","coordinates":[-71.02568051599997,42.46867023600004]},"properties":{"Loc_name":"World","Status":"M","Score":97.83,"ARC_Addres":"1075 Broadway St","ADDRESS_St":"1075 Broadway St","TYPE_1":"ATM","CITY_1":"Saugus","State":"Massachusetts"}},
{"type":"Feature","geometry":{"type":"Point","coordinates":[-71.01805451099995,42.48726549600008]},"properties":{"Loc_name":"World","Status":"M","Score":100,"ARC_Addres":"323 Broadway","ADDRESS_St":"323 Broadway","TYPE_1":"Branch","CITY_1":"Saugus","State":"Massachusetts"}},
{"type":"Feature","geometry":{"type":"Point","coordinates":[-71.10069264899994,42.49409606800003]},"properties":{"Loc_name":"World","Status":"M","Score":100,"ARC_Addres":"107 Main St","ADDRESS_St":"107 Main St","TYPE_1":"ATM","CITY_1":"Stoneham","State":"Massachusetts"}},
{"type":"Feature","geometry":{"type":"Point","coordinates":[-71.07079125699994,42.50387326100008]},"properties":{"Loc_name":"World","Status":"M","Score":100,"ARC_Addres":"369 Main Street","ADDRESS_St":"369 Main Street","TYPE_1":"Branch","CITY_1":"Wakefield","State":"Massachusetts"}},
{"type":"Feature","geometry":{"type":"Point","coordinates":[-71.06953461699999,42.50186510800006]},"properties":{"Loc_name":"World","Status":"M","Score":100,"ARC_Addres":"451 Main St","ADDRESS_St":"451 Main St","TYPE_1":"ATM","CITY_1":"Wakefield","State":"Massachusetts"}},
{"type":"Feature","geometry":{"type":"Point","coordinates":[-70.90237818599996,42.48176126800007]},"properties":{"Loc_name":"World","Status":"M","Score":100,"ARC_Addres":"413 Paradise Rd","ADDRESS_St":"413 Paradise Rd","TYPE_1":"ATM","CITY_1":"Swampscott","State":"Massachusetts"}},
{"type":"Feature","geometry":{"type":"Point","coordinates":[-70.90048338199995,42.48364151200008]},"properties":{"Loc_name":"World","Status":"M","Score":100,"ARC_Addres":"495 Paradise Road","ADDRESS_St":"495 Paradise Road","TYPE_1":"Branch","CITY_1":"Swampscott","State":"Massachusetts"}},
{"type":"Feature","geometry":{"type":"Point","coordinates":[-70.91996535099997,42.52292115500006]},"properties":{"Loc_name":"World","Status":"M","Score":100,"ARC_Addres":"174 Main St","ADDRESS_St":"174 Main St","TYPE_1":"ATM","CITY_1":"Peabody","State":"Massachusetts"}},
{"type":"Feature","geometry":{"type":"Point","coordinates":[-70.95495451099998,42.55009913600003]},"properties":{"Loc_name":"World","Status":"M","Score":100,"ARC_Addres":"300 Andover Street","ADDRESS_St":"300 Andover Street","TYPE_1":"Branch","CITY_1":"Peabody","State":"Massachusetts"}},
{"type":"Feature","geometry":{"type":"Point","coordinates":[-70.98151472399996,42.546021763000056]},"properties":{"Loc_name":"World","Status":"M","Score":100,"ARC_Addres":"535 Lowell St","ADDRESS_St":"535 Lowell St","TYPE_1":"ATM","CITY_1":"Peabody","State":"Massachusetts"}},
{"type":"Feature","geometry":{"type":"Point","coordinates":[-71.00174273199997,42.54927782400006]},"properties":{"Loc_name":"World","Status":"M","Score":100,"ARC_Addres":"637 Lowell St","ADDRESS_St":"637 Lowell St","TYPE_1":"ATM","CITY_1":"Peabody","State":"Massachusetts"}},
{"type":"Feature","geometry":{"type":"Point","coordinates":[-70.95154280999998,42.51670543500006]},"properties":{"Loc_name":"World","Status":"M","Score":100,"ARC_Addres":"85 Lynnfield St","ADDRESS_St":"85 Lynnfield St","TYPE_1":"ATM","CITY_1":"Peabody","State":"Massachusetts"}},
{"type":"Feature","geometry":{"type":"Point","coordinates":[-71.18558201799993,42.79189427600005]},"properties":{"Loc_name":"World","Status":"M","Score":95.94,"ARC_Addres":"2 Hampstead Road","ADDRESS_St":"2 Hampstead Road","TYPE_1":"ATM","CITY_1":"Salem","State":"Massachusetts"}},
{"type":"Feature","geometry":{"type":"Point","coordinates":[-70.89431559199994,42.521659458000045]},"properties":{"Loc_name":"World","Status":"M","Score":100,"ARC_Addres":"200 Essex St","ADDRESS_St":"200 Essex St","TYPE_1":"ATM","CITY_1":"Salem","State":"Massachusetts"}},
{"type":"Feature","geometry":{"type":"Point","coordinates":[-70.89648392199996,42.52141155800007]},"properties":{"Loc_name":"World","Status":"M","Score":100,"ARC_Addres":"253 Essex Street","ADDRESS_St":"253 Essex Street","TYPE_1":"Branch","CITY_1":"Salem","State":"Massachusetts"}},
{"type":"Feature","geometry":{"type":"Point","coordinates":[-70.92419983399998,42.502877769000065]},"properties":{"Loc_name":"World","Status":"M","Score":100,"ARC_Addres":"272 Highland Ave","ADDRESS_St":"272 Highland Ave","TYPE_1":"ATM","CITY_1":"Salem","State":"Massachusetts"}},
{"type":"Feature","geometry":{"type":"Point","coordinates":[-70.89601871799994,42.50112775400004]},"properties":{"Loc_name":"World","Status":"M","Score":100,"ARC_Addres":"296 Canal St","ADDRESS_St":"296 Canal St","TYPE_1":"ATM","CITY_1":"Salem","State":"Massachusetts"}},
{"type":"Feature","geometry":{"type":"Point","coordinates":[-70.90559022999997,42.51674238100003]},"properties":{"Loc_name":"World","Status":"M","Score":100,"ARC_Addres":"426 Essex St","ADDRESS_St":"426 Essex St","TYPE_1":"ATM","CITY_1":"Salem","State":"Massachusetts"}},
{"type":"Feature","geometry":{"type":"Point","coordinates":[-71.09379909199998,42.269958115000065]},"properties":{"Loc_name":"World","Status":"M","Score":100,"ARC_Addres":"1575 Blue Hill Ave","ADDRESS_St":"1575 Blue Hill Ave","TYPE_1":"ATM","CITY_1":"Mattapan","State":"Massachusetts"}},
{"type":"Feature","geometry":{"type":"Point","coordinates":[-71.09383758099995,42.268716838000046]},"properties":{"Loc_name":"World","Status":"M","Score":100,"ARC_Addres":"1617 Blue Hill Avenue","ADDRESS_St":"1617 Blue Hill Avenue","TYPE_1":"Branch","CITY_1":"Mattapan","State":"Massachusetts"}},
{"type":"Feature","geometry":{"type":"Point","coordinates":[-70.85872973199997,42.500362247000055]},"properties":{"Loc_name":"World","Status":"M","Score":100,"ARC_Addres":"161 Pleasant Street","ADDRESS_St":"161 Pleasant Street","TYPE_1":"ATM","CITY_1":"Marblehead","State":"Massachusetts"}},
{"type":"Feature","geometry":{"type":"Point","coordinates":[-70.85615539799994,42.498714687000074]},"properties":{"Loc_name":"World","Status":"M","Score":100,"ARC_Addres":"45 Atlantic Ave","ADDRESS_St":"45 Atlantic Ave","TYPE_1":"ATM","CITY_1":"Marblehead","State":"Massachusetts"}},
{"type":"Feature","geometry":{"type":"Point","coordinates":[-71.68465472399998,42.41745259400005]},"properties":{"Loc_name":"World","Status":"M","Score":96.64,"ARC_Addres":"79 High Street","ADDRESS_St":"79 High Street","TYPE_1":"Branch","CITY_1":"Clifton","State":"Massachusetts"}},
{"type":"Feature","geometry":{"type":"Point","coordinates":[-71.67381743099997,42.45715981300003]},"properties":{"Loc_name":"World","Status":"T","Score":97.93,"ARC_Addres":"792 Main St","ADDRESS_St":"792 Main St","TYPE_1":"ATM","CITY_1":"Clifton","State":"Massachusetts"}},
{"type":"Feature","geometry":{"type":"Point","coordinates":[-71.03903186399998,42.374513755000066]},"properties":{"Loc_name":"World","Status":"T","Score":100,"ARC_Addres":"2 Meridian Street","ADDRESS_St":"2 Meridian Street","TYPE_1":"Branch","CITY_1":"East Boston","State":"Massachusetts"}},
{"type":"Feature","geometry":{"type":"Point","coordinates":[-71.03983793599997,42.37532442300005]},"properties":{"Loc_name":"World","Status":"M","Score":100,"ARC_Addres":"210 Border St","ADDRESS_St":"210 Border St","TYPE_1":"ATM","CITY_1":"East Boston","State":"Massachusetts"}},
{"type":"Feature","geometry":{"type":"Point","coordinates":[-71.07162322099998,42.382448889000045]},"properties":{"Loc_name":"World","Status":"M","Score":100,"ARC_Addres":"509 Main St","ADDRESS_St":"509 Main St","TYPE_1":"ATM","CITY_1":"Charlestown","State":"Massachusetts"}},
{"type":"Feature","geometry":{"type":"Point","coordinates":[-71.16453830699999,42.32331996100004]},"properties":{"Loc_name":"World","Status":"M","Score":100,"ARC_Addres":"1195 Boylston St","ADDRESS_St":"1195 Boylston St","TYPE_1":"ATM","CITY_1":"Chestnut Hill","State":"Massachusetts"}},
{"type":"Feature","geometry":{"type":"Point","coordinates":[-71.16590387899998,42.322912002000066]},"properties":{"Loc_name":"World","Status":"M","Score":100,"ARC_Addres":"1228 Boylston Street","ADDRESS_St":"1228 Boylston Street","TYPE_1":"Branch","CITY_1":"Chestnut Hill","State":"Massachusetts"}},
{"type":"Feature","geometry":{"type":"Point","coordinates":[-71.08254616699998,42.31819692900007]},"properties":{"Loc_name":"World","Status":"M","Score":100,"ARC_Addres":"330 Martin Luther King Boulevard","ADDRESS_St":"330 Martin Luther King Boulevard","TYPE_1":"Branch","CITY_1":"Roxbury","State":"Massachusetts"}},
{"type":"Feature","geometry":{"type":"Point","coordinates":[-71.05973678799995,42.30168417300007]},"properties":{"Loc_name":"World","Status":"M","Score":100,"ARC_Addres":"1442 Dorchester Avenue","ADDRESS_St":"1442 Dorchester Avenue","TYPE_1":"Branch","CITY_1":"Dorchester","State":"Massachusetts"}},
{"type":"Feature","geometry":{"type":"Point","coordinates":[-71.04951432899998,42.31907882400003]},"properties":{"Loc_name":"World","Status":"M","Score":100,"ARC_Addres":"2 Morrissey Blvd","ADDRESS_St":"2 Morrissey Blvd","TYPE_1":"ATM","CITY_1":"Dorchester","State":"Massachusetts"}},
{"type":"Feature","geometry":{"type":"Point","coordinates":[-71.04951432899998,42.31907882400003]},"properties":{"Loc_name":"World","Status":"M","Score":100,"ARC_Addres":"2 Morrissey Boulevard","ADDRESS_St":"2 Morrissey Boulevard","TYPE_1":"Branch","CITY_1":"Dorchester","State":"Massachusetts"}},
{"type":"Feature","geometry":{"type":"Point","coordinates":[-71.08289810999997,42.30887296000003]},"properties":{"Loc_name":"World","Status":"M","Score":100,"ARC_Addres":"468 Blue Hill Ave","ADDRESS_St":"468 Blue Hill Ave","TYPE_1":"ATM","CITY_1":"Dorchester","State":"Massachusetts"}},
{"type":"Feature","geometry":{"type":"Point","coordinates":[-71.06534474699998,42.31685444400006]},"properties":{"Loc_name":"World","Status":"M","Score":100,"ARC_Addres":"585 Columbia Road","ADDRESS_St":"585 Columbia Road","TYPE_1":"Branch","CITY_1":"Dorchester","State":"Massachusetts"}},
{"type":"Feature","geometry":{"type":"Point","coordinates":[-71.05931043199996,42.32667345900006]},"properties":{"Loc_name":"World","Status":"M","Score":100,"ARC_Addres":"65 Boston Street","ADDRESS_St":"65 Boston Street","TYPE_1":"ATM","CITY_1":"Dorchester","State":"Massachusetts"}},
{"type":"Feature","geometry":{"type":"Point","coordinates":[-71.04765489599998,42.28359290800006]},"properties":{"Loc_name":"World","Status":"M","Score":100,"ARC_Addres":"703 Gallivan Blvd","ADDRESS_St":"703 Gallivan Blvd","TYPE_1":"ATM","CITY_1":"Dorchester","State":"Massachusetts"}},
{"type":"Feature","geometry":{"type":"Point","coordinates":[-71.04937475599996,42.29746858100003]},"properties":{"Loc_name":"World","Status":"M","Score":100,"ARC_Addres":"715 Morrissey Blvd","ADDRESS_St":"715 Morrissey Blvd","TYPE_1":"ATM","CITY_1":"Dorchester","State":"Massachusetts"}},
{"type":"Feature","geometry":{"type":"Point","coordinates":[-71.06566903999999,42.31730488200003]},"properties":{"Loc_name":"World","Status":"M","Score":100,"ARC_Addres":"778 Dudley St","ADDRESS_St":"778 Dudley St","TYPE_1":"ATM","CITY_1":"Dorchester","State":"Massachusetts"}},
{"type":"Feature","geometry":{"type":"Point","coordinates":[-71.04409588599998,42.28514777400005]},"properties":{"Loc_name":"World","Status":"M","Score":100,"ARC_Addres":"780 Gallivan Boulevard","ADDRESS_St":"780 Gallivan Boulevard","TYPE_1":"Branch","CITY_1":"Dorchester","State":"Massachusetts"}},
{"type":"Feature","geometry":{"type":"Point","coordinates":[-71.13258914799997,42.34929049700003]},"properties":{"Loc_name":"World","Status":"M","Score":100,"ARC_Addres":"1266 Commonwealth Ave","ADDRESS_St":"1266 Commonwealth Ave","TYPE_1":"ATM","CITY_1":"Allston","State":"Massachusetts"}},
{"type":"Feature","geometry":{"type":"Point","coordinates":[-71.13383818299997,42.35322341800003]},"properties":{"Loc_name":"World","Status":"M","Score":100,"ARC_Addres":"181 Brighton Ave","ADDRESS_St":"181 Brighton Ave","TYPE_1":"ATM","CITY_1":"Allston","State":"Massachusetts"}},
{"type":"Feature","geometry":{"type":"Point","coordinates":[-71.12682684599997,42.358458933000065]},"properties":{"Loc_name":"World","Status":"M","Score":98.5,"ARC_Addres":"487 Harvard Street","ADDRESS_St":"487 Harvard Street","TYPE_1":"Branch","CITY_1":"Allston","State":"Massachusetts"}},
{"type":"Feature","geometry":{"type":"Point","coordinates":[-71.19917489799997,42.35387017700003]},"properties":{"Loc_name":"World","Status":"M","Score":100,"ARC_Addres":"624 Washington Street","ADDRESS_St":"624 Washington Street","TYPE_1":"Branch","CITY_1":"Newtonville","State":"Massachusetts"}},
{"type":"Feature","geometry":{"type":"Point","coordinates":[-71.11184840899995,42.31929756100004]},"properties":{"Loc_name":"World","Status":"M","Score":100,"ARC_Addres":"467 Centre St","ADDRESS_St":"467 Centre St","TYPE_1":"ATM","CITY_1":"Jamaica Plain","State":"Massachusetts"}},
{"type":"Feature","geometry":{"type":"Point","coordinates":[-71.11411057799995,42.31306586200003]},"properties":{"Loc_name":"World","Status":"M","Score":100,"ARC_Addres":"655 Centre Street","ADDRESS_St":"655 Centre Street","TYPE_1":"ATM","CITY_1":"Jamaica Plain","State":"Massachusetts"}},
{"type":"Feature","geometry":{"type":"Point","coordinates":[-71.11435012899994,42.31159366600008]},"properties":{"Loc_name":"World","Status":"M","Score":100,"ARC_Addres":"704 Centre St","ADDRESS_St":"704 Centre St","TYPE_1":"ATM","CITY_1":"Jamaica Plain","State":"Massachusetts"}},
{"type":"Feature","geometry":{"type":"Point","coordinates":[-71.14892715799994,42.33642303000005]},"properties":{"Loc_name":"World","Status":"M","Score":100,"ARC_Addres":"1916 Beacon Street","ADDRESS_St":"1916 Beacon Street","TYPE_1":"ATM","CITY_1":"Brighton","State":"Massachusetts"}},
{"type":"Feature","geometry":{"type":"Point","coordinates":[-71.14857571699997,42.33622183800003]},"properties":{"Loc_name":"World","Status":"M","Score":100,"ARC_Addres":"1927 Beacon St","ADDRESS_St":"1927 Beacon St","TYPE_1":"ATM","CITY_1":"Brighton","State":"Massachusetts"}},
{"type":"Feature","geometry":{"type":"Point","coordinates":[-71.14952118399998,42.355550728000026]},"properties":{"Loc_name":"World","Status":"M","Score":100,"ARC_Addres":"207 Market St","ADDRESS_St":"207 Market St","TYPE_1":"ATM","CITY_1":"Brighton","State":"Massachusetts"}},
{"type":"Feature","geometry":{"type":"Point","coordinates":[-71.15640252799994,42.34913149000005]},"properties":{"Loc_name":"World","Status":"M","Score":100,"ARC_Addres":"427 Washington St","ADDRESS_St":"427 Washington St","TYPE_1":"ATM","CITY_1":"Brighton","State":"Massachusetts"}},
{"type":"Feature","geometry":{"type":"Point","coordinates":[-71.14618383899995,42.360748545000035]},"properties":{"Loc_name":"World","Status":"M","Score":100,"ARC_Addres":"30 Birmingham Parkway","ADDRESS_St":"30 Birmingham Parkway","TYPE_1":"Branch","CITY_1":"Brighton","State":"Massachusetts"}},
{"type":"Feature","geometry":{"type":"Point","coordinates":[-71.15326700199995,42.34970128900005]},"properties":{"Loc_name":"World","Status":"M","Score":100,"ARC_Addres":"415 Market Street","ADDRESS_St":"415 Market Street","TYPE_1":"Branch","CITY_1":"Brighton","State":"Massachusetts"}},
{"type":"Feature","geometry":{"type":"Point","coordinates":[-71.15684632899996,42.284404592000044]},"properties":{"Loc_name":"World","Status":"M","Score":100,"ARC_Addres":"1921 Centre St","ADDRESS_St":"1921 Centre St","TYPE_1":"ATM","CITY_1":"West Roxbury","State":"Massachusetts"}},
{"type":"Feature","geometry":{"type":"Point","coordinates":[-71.15697762299999,42.295879650000074]},"properties":{"Loc_name":"World","Status":"M","Score":100,"ARC_Addres":"647 Vfw Parkway","ADDRESS_St":"647 Vfw Parkway","TYPE_1":"ATM","CITY_1":"West Roxbury","State":"Massachusetts"}},
{"type":"Feature","geometry":{"type":"Point","coordinates":[-71.13961839599995,42.27599291800004]},"properties":{"Loc_name":"World","Status":"M","Score":97.93,"ARC_Addres":"4600 Washington St","ADDRESS_St":"4600 Washington St","TYPE_1":"ATM","CITY_1":"Rosindale","State":"Massachusetts"}},
{"type":"Feature","geometry":{"type":"Point","coordinates":[-71.04755807299995,42.33665703200006]},"properties":{"Loc_name":"World","Status":"M","Score":100,"ARC_Addres":"423 W Broadway","ADDRESS_St":"423 W Broadway","TYPE_1":"ATM","CITY_1":"South Boston","State":"Massachusetts"}},
{"type":"Feature","geometry":{"type":"Point","coordinates":[-71.04592464299998,42.335676858000056]},"properties":{"Loc_name":"World","Status":"M","Score":100,"ARC_Addres":"474 West Broadway","ADDRESS_St":"474 West Broadway","TYPE_1":"Branch","CITY_1":"South Boston","State":"Massachusetts"}},
{"type":"Feature","geometry":{"type":"Point","coordinates":[-71.01690032499994,42.267221928000026]},"properties":{"Loc_name":"World","Status":"M","Score":99.9,"ARC_Addres":"20 Beale Street","ADDRESS_St":"20 Beale Street","TYPE_1":"Branch","CITY_1":"Wollaston","State":"Massachusetts"}},
{"type":"Feature","geometry":{"type":"Point","coordinates":[-71.01766737699995,42.26667521100006]},"properties":{"Loc_name":"World","Status":"M","Score":99.9,"ARC_Addres":"42 Beale St","ADDRESS_St":"42 Beale St","TYPE_1":"ATM","CITY_1":"Wollaston","State":"Massachusetts"}}
]}